[
  {
    "id": "oakhouse_16956",
    "oakhouse_id": "16956",
    "kind": "apartment",
    "name": "AILE 히가시나카하마",
    "url": "https://www.oakhouse.jp/kr/apartment/16956",
    "address": "오사카 부 오사카 시 히가시나카하마 8초메",
    "lat": 34.6841354,
    "lng": 135.5531311,
    "fetched_ok": true
  },
  {
    "id": "oakhouse_17326",
    "oakhouse_id": "17326",
    "kind": "apartment",
    "name": "AILE 미나미츠카구치 V",
    "url": "https://www.oakhouse.jp/kr/apartment/17326",
    "address": "효고현 아마가사키 시 미나미츠카구치초 8초메",
    "lat": 34.7523766,
    "lng": 135.4073334,
    "fetched_ok": true
  },
  {
    "id": "oakhouse_16156",
    "oakhouse_id": "16156",
    "kind": "apartment",
    "name": "AILE 무고노소",
    "url": "https://www.oakhouse.jp/kr/apartment/16156",
    "address": "효고현 아마가사키 시 미나미무코노소 5초메",
    "lat": 34.749649,
    "lng": 135.3869934,
    "fetched_ok": true
  },
  {
    "id": "oakhouse_16823",
    "oakhouse_id": "16823",
    "kind": "apartment",
    "name": "AILE 시바지마",
    "url": "https://www.oakhouse.jp/kr/apartment/16823",
    "address": "오사카 부 오사카 시 시바지마 2초메",
    "lat": 34.7301254,
    "lng": 135.5139465,
    "fetched_ok": true
  },
  {
    "id": "oakhouse_17316",
    "oakhouse_id": "17316",
    "kind": "apartment",
    "name": "ALEGRIA 히라노혼마치 Ⅱ",
    "url": "https://www.oakhouse.jp/kr/apartment/17316",
    "address": "오사카 부 오사카 시 히라노혼마치 3초메",
    "lat": 34.6238518,
    "lng": 135.5536804,
    "fetched_ok": true
  },
  {
    "id": "oakhouse_17468",
    "oakhouse_id": "17468",
    "kind": "apartment",
    "name": "ALIKA HIKIFUNE 2",
    "url": "https://www.oakhouse.jp/kr/apartment/17468",
    "address": "도쿄도 스미다구",
    "lat": 35.7212486,
    "lng": 139.8257294,
    "fetched_ok": true
  },
  {
    "id": "oakhouse_1139",
    "oakhouse_id": "1139",
    "kind": "house",
    "name": "아파트먼트 아이치",
    "url": "https://www.oakhouse.jp/kr/house/1139",
    "address": "아이치현 캇타니시 마츠에이초",
    "lat": 34.9805603,
    "lng": 137.0331573,
    "fetched_ok": true
  },
  {
    "id": "oakhouse_1129",
    "oakhouse_id": "1129",
    "kind": "house",
    "name": "아파트먼트 아사카",
    "url": "https://www.oakhouse.jp/kr/house/1129",
    "address": "사이타마현 아사카시 미조누마",
    "lat": 35.8040466,
    "lng": 139.5910187,
    "fetched_ok": true
  },
  {
    "id": "oakhouse_1169",
    "oakhouse_id": "1169",
    "kind": "house",
    "name": "아파트먼트 히라이",
    "url": "https://www.oakhouse.jp/kr/house/1169",
    "address": "도쿄도 에도가와구 히라이",
    "lat": 35.701664,
    "lng": 139.8466034,
    "fetched_ok": true
  },
  {
    "id": "oakhouse_1150",
    "oakhouse_id": "1150",
    "kind": "house",
    "name": "아파트먼트 이다바시",
    "url": "https://www.oakhouse.jp/kr/house/1150",
    "address": "도쿄도 신주쿠구 신오가와초",
    "lat": 35.7041054,
    "lng": 139.7432404,
    "fetched_ok": true
  },
  {
    "id": "oakhouse_1164",
    "oakhouse_id": "1164",
    "kind": "house",
    "name": "아파트먼트 마바시",
    "url": "https://www.oakhouse.jp/kr/house/1164",
    "address": "치바켄 마츠도시 마바시",
    "lat": 35.8154144,
    "lng": 139.9203949,
    "fetched_ok": true
  },
  {
    "id": "oakhouse_16550",
    "oakhouse_id": "16550",
    "kind": "apartment",
    "name": "AQUA GALAXY",
    "url": "https://www.oakhouse.jp/kr/apartment/16550",
    "address": "오사카 부 오사카 시 혼다 2초메",
    "lat": 34.6768456,
    "lng": 135.4778595,
    "fetched_ok": true
  },
  {
    "id": "oakhouse_1157",
    "oakhouse_id": "1157",
    "kind": "apartment",
    "name": "AQURIEST Ⅰ (교토)",
    "url": "https://www.oakhouse.jp/kr/apartment/1157",
    "address": "교토부 교토시 가미교구 호즈이초",
    "lat": 35.0238304,
    "lng": 135.736618,
    "fetched_ok": true
  },
  {
    "id": "oakhouse_16841",
    "oakhouse_id": "16841",
    "kind": "apartment",
    "name": "ARCA 니시쿄고쿠",
    "url": "https://www.oakhouse.jp/kr/apartment/16841",
    "address": "교토부 교토시 니시쿄쿠가쿠하마노혼마치",
    "lat": 34.9947014,
    "lng": 135.7115631,
    "fetched_ok": true
  },
  {
    "id": "oakhouse_17290",
    "oakhouse_id": "17290",
    "kind": "apartment",
    "name": "ARKMARK 이케부쿠로 본점",
    "url": "https://www.oakhouse.jp/kr/apartment/17290",
    "address": "도쿄도 토시마구 이케부쿠로 혼마치 2초메",
    "lat": 35.7417984,
    "lng": 139.7119446,
    "fetched_ok": true
  },
  {
    "id": "oakhouse_1174",
    "oakhouse_id": "1174",
    "kind": "apartment",
    "name": "아반자레 다카나와",
    "url": "https://www.oakhouse.jp/kr/apartment/1174",
    "address": "도쿄도 미나토구 다카나와",
    "lat": 35.6368599,
    "lng": 139.7385101,
    "fetched_ok": true
  },
  {
    "id": "oakhouse_14724",
    "oakhouse_id": "14724",
    "kind": "apartment",
    "name": "AXAS 이케부쿠로 레지던스",
    "url": "https://www.oakhouse.jp/kr/apartment/14724",
    "address": "도쿄도 토시마구 이케부쿠로 1초메",
    "lat": 35.7380562,
    "lng": 139.7116547,
    "fetched_ok": true
  },
  {
    "id": "oakhouse_14503",
    "oakhouse_id": "14503",
    "kind": "apartment",
    "name": "AZEST 관내",
    "url": "https://www.oakhouse.jp/kr/apartment/14503",
    "address": "가나가와현 요코하마시 스에요시초 1초메",
    "lat": 35.4426117,
    "lng": 139.6277771,
    "fetched_ok": true
  },
  {
    "id": "oakhouse_14641",
    "oakhouse_id": "14641",
    "kind": "apartment",
    "name": "AZEST 니시타카시마다이라",
    "url": "https://www.oakhouse.jp/kr/apartment/14641",
    "address": "도쿄도 이타바시구 산엔 1초메",
    "lat": 35.7910767,
    "lng": 139.6414032,
    "fetched_ok": true
  },
  {
    "id": "oakhouse_13936",
    "oakhouse_id": "13936",
    "kind": "apartment",
    "name": "AZEST 다치카와",
    "url": "https://www.oakhouse.jp/kr/apartment/13936",
    "address": "도쿄도 다치카와시 다카마쓰초 2초메",
    "lat": 35.7058678,
    "lng": 139.4200897,
    "fetched_ok": true
  },
  {
    "id": "oakhouse_14592",
    "oakhouse_id": "14592",
    "kind": "apartment",
    "name": "AZEST 요코하마관내",
    "url": "https://www.oakhouse.jp/kr/apartment/14592",
    "address": "가나가와현 요코하마시 치토세초",
    "lat": 35.4375801,
    "lng": 139.6350098,
    "fetched_ok": true
  },
  {
    "id": "oakhouse_14561",
    "oakhouse_id": "14561",
    "kind": "apartment",
    "name": "AZEST 요코하마 오도리 공원",
    "url": "https://www.oakhouse.jp/kr/apartment/14561",
    "address": "가나가와현 요코하마시 마가네초 2초메",
    "lat": 35.4390068,
    "lng": 139.6293793,
    "fetched_ok": true
  },
  {
    "id": "oakhouse_16438",
    "oakhouse_id": "16438",
    "kind": "apartment",
    "name": "AZEST-RENT 아오토",
    "url": "https://www.oakhouse.jp/kr/apartment/16438",
    "address": "도쿄도 가쓰시카구 아오토 6초메",
    "lat": 35.7519836,
    "lng": 139.857254,
    "fetched_ok": true
  },
  {
    "id": "oakhouse_14583",
    "oakhouse_id": "14583",
    "kind": "apartment",
    "name": "AZEST-RENT 이치바시학원",
    "url": "https://www.oakhouse.jp/kr/apartment/14583",
    "address": "도쿄도 고다이라시 가쿠엔히가시초 1초메",
    "lat": 35.7248497,
    "lng": 139.4793549,
    "fetched_ok": true
  },
  {
    "id": "oakhouse_14710",
    "oakhouse_id": "14710",
    "kind": "apartment",
    "name": "AZEST-RENT 이치바시학원 Ⅱ",
    "url": "https://www.oakhouse.jp/kr/apartment/14710",
    "address": "도쿄도 고다이라시 가쿠엔니시초 1초메",
    "lat": 35.7211914,
    "lng": 139.4780426,
    "fetched_ok": true
  },
  {
    "id": "oakhouse_14618",
    "oakhouse_id": "14618",
    "kind": "apartment",
    "name": "AZEST-RENT 미야자키다이",
    "url": "https://www.oakhouse.jp/kr/apartment/14618",
    "address": "가나가와현 가와사키시 미야자키",
    "lat": 35.5889931,
    "lng": 139.5964355,
    "fetched_ok": true
  },
  {
    "id": "oakhouse_15176",
    "oakhouse_id": "15176",
    "kind": "apartment",
    "name": "AZEST-RENT 토코로자와",
    "url": "https://www.oakhouse.jp/kr/apartment/15176",
    "address": "사이타마현 토코로자와시 아사히마치",
    "lat": 35.7904549,
    "lng": 139.4781647,
    "fetched_ok": true
  },
  {
    "id": "oakhouse_14537",
    "oakhouse_id": "14537",
    "kind": "apartment",
    "name": "Access 쇼난 히라쓰카",
    "url": "https://www.oakhouse.jp/kr/apartment/14537",
    "address": "아카시쵸",
    "lat": 35.3303642,
    "lng": 139.3495331,
    "fetched_ok": true
  },
  {
    "id": "oakhouse_15880",
    "oakhouse_id": "15880",
    "kind": "apartment",
    "name": "어드밴스 니시우메다 라슐레",
    "url": "https://www.oakhouse.jp/kr/apartment/15880",
    "address": "오사카 부 오사카 시 요시노 2초메",
    "lat": 34.6923828,
    "lng": 135.4762573,
    "fetched_ok": true
  },
  {
    "id": "oakhouse_16128",
    "oakhouse_id": "16128",
    "kind": "apartment",
    "name": "어드밴스 오사카 돔 앞",
    "url": "https://www.oakhouse.jp/kr/apartment/16128",
    "address": "오사카 부 오사카 시 구조미나미 1초메",
    "lat": 34.6716309,
    "lng": 135.476181,
    "fetched_ok": true
  },
  {
    "id": "oakhouse_1040",
    "oakhouse_id": "1040",
    "kind": "house",
    "name": "AKARI-YA 토부네리마",
    "url": "https://www.oakhouse.jp/kr/house/1040",
    "address": "도쿄도 네리마구 키타쵸",
    "lat": 35.7672005,
    "lng": 139.666275,
    "fetched_ok": true
  },
  {
    "id": "oakhouse_14733",
    "oakhouse_id": "14733",
    "kind": "apartment",
    "name": "알리비온 오이즈미가쿠엔",
    "url": "https://www.oakhouse.jp/kr/apartment/14733",
    "address": "도쿄도 네리마구 히가시이즈미 6초메",
    "lat": 35.7481346,
    "lng": 139.5835724,
    "fetched_ok": true
  },
  {
    "id": "oakhouse_15366",
    "oakhouse_id": "15366",
    "kind": "apartment",
    "name": "알토 팰리스",
    "url": "https://www.oakhouse.jp/kr/apartment/15366",
    "address": "도쿄도 아라카와구 니시닛포리 6초메",
    "lat": 35.7370224,
    "lng": 139.77034,
    "fetched_ok": true
  },
  {
    "id": "oakhouse_17315",
    "oakhouse_id": "17315",
    "kind": "apartment",
    "name": "앙베릴 왕자 II",
    "url": "https://www.oakhouse.jp/kr/apartment/17315",
    "address": "도쿄도 기타구 토시마 2초메",
    "lat": 35.7577477,
    "lng": 139.743103,
    "fetched_ok": true
  },
  {
    "id": "oakhouse_14500",
    "oakhouse_id": "14500",
    "kind": "apartment",
    "name": "앰버릴 스미다 Ⅲ",
    "url": "https://www.oakhouse.jp/kr/apartment/14500",
    "address": "도쿄도 스미다구 스미다 1초메",
    "lat": 35.7283249,
    "lng": 139.8137665,
    "fetched_ok": true
  },
  {
    "id": "oakhouse_16810",
    "oakhouse_id": "16810",
    "kind": "apartment",
    "name": "아미스타 이쿠타",
    "url": "https://www.oakhouse.jp/kr/apartment/16810",
    "address": "가나가와현 가와사키시 이쿠타 6초메",
    "lat": 35.6189346,
    "lng": 139.5379181,
    "fetched_ok": true
  },
  {
    "id": "oakhouse_17100",
    "oakhouse_id": "17100",
    "kind": "apartment",
    "name": "아미스타 신코이와",
    "url": "https://www.oakhouse.jp/kr/apartment/17100",
    "address": "도쿄도 가쓰시카구 히가시신코이와 5초메",
    "lat": 35.7208405,
    "lng": 139.856842,
    "fetched_ok": true
  },
  {
    "id": "oakhouse_16670",
    "oakhouse_id": "16670",
    "kind": "apartment",
    "name": "아몰 HARMONYⅡ",
    "url": "https://www.oakhouse.jp/kr/apartment/16670",
    "address": "오사카 부 오사카 시 스가와라 1초메",
    "lat": 34.7362556,
    "lng": 135.52771,
    "fetched_ok": true
  },
  {
    "id": "oakhouse_18112",
    "oakhouse_id": "18112",
    "kind": "apartment",
    "name": "아무르 HARMONYI",
    "url": "https://www.oakhouse.jp/kr/apartment/18112",
    "address": "오사카 부 오사카 시 스가와라 1초메",
    "lat": 34.7367973,
    "lng": 135.5280762,
    "fetched_ok": true
  },
  {
    "id": "oakhouse_16023",
    "oakhouse_id": "16023",
    "kind": "apartment",
    "name": "아므르 쿠라가노",
    "url": "https://www.oakhouse.jp/kr/apartment/16023",
    "address": "교토부 교토시 사가 다이카쿠지몬마에이카쿠지마치",
    "lat": 35.0213699,
    "lng": 135.6781464,
    "fetched_ok": true
  },
  {
    "id": "oakhouse_16967",
    "oakhouse_id": "16967",
    "kind": "apartment",
    "name": "앙ンプルールクラージュアミティエ(앙ンプルールクラージュアミティエ)",
    "url": "https://www.oakhouse.jp/kr/apartment/16967",
    "address": "카지마치 4초메",
    "lat": 34.7520943,
    "lng": 135.5892334,
    "fetched_ok": true
  },
  {
    "id": "oakhouse_16685",
    "oakhouse_id": "16685",
    "kind": "apartment",
    "name": "앰플루르페르 Gland・Mob(몹)",
    "url": "https://www.oakhouse.jp/kr/apartment/16685",
    "address": "사타히가시쵸 1초메",
    "lat": 34.7547073,
    "lng": 135.5852661,
    "fetched_ok": true
  },
  {
    "id": "oakhouse_15178",
    "oakhouse_id": "15178",
    "kind": "apartment",
    "name": "앰풀루페르 타케다(TAKEDA)",
    "url": "https://www.oakhouse.jp/kr/apartment/15178",
    "address": "사이타마현 사이타마시 오아자 오오아자시",
    "lat": 35.8826675,
    "lng": 139.6389618,
    "fetched_ok": true
  },
  {
    "id": "oakhouse_15648",
    "oakhouse_id": "15648",
    "kind": "apartment",
    "name": "앰퍼러 페레 도미르",
    "url": "https://www.oakhouse.jp/kr/apartment/15648",
    "address": "오사카 부 오사카 시 기가와니시 2초메",
    "lat": 34.7245903,
    "lng": 135.489502,
    "fetched_ok": true
  },
  {
    "id": "oakhouse_16968",
    "oakhouse_id": "16968",
    "kind": "apartment",
    "name": "앰풀루페르페르 한나한나",
    "url": "https://www.oakhouse.jp/kr/apartment/16968",
    "address": null,
    "lat": 34.8450508,
    "lng": 135.6278534,
    "fetched_ok": false
  },
  {
    "id": "oakhouse_16435",
    "oakhouse_id": "16435",
    "kind": "apartment",
    "name": "아무르 코즈에",
    "url": "https://www.oakhouse.jp/kr/apartment/16435",
    "address": "도쿄도 후쿠사시 오아자쿠마가와",
    "lat": 35.7226677,
    "lng": 139.3476105,
    "fetched_ok": true
  },
  {
    "id": "oakhouse_14274",
    "oakhouse_id": "14274",
    "kind": "apartment",
    "name": "아피체 메구로",
    "url": "https://www.oakhouse.jp/kr/apartment/14274",
    "address": "도쿄도 메구로구 시모메구로 2초메",
    "lat": 35.6290588,
    "lng": 139.7122803,
    "fetched_ok": true
  },
  {
    "id": "oakhouse_14252",
    "oakhouse_id": "14252",
    "kind": "apartment",
    "name": "아피체 토고시 긴자",
    "url": "https://www.oakhouse.jp/kr/apartment/14252",
    "address": "도쿄도 시나가와구 히라츠카 1초메",
    "lat": 35.6159515,
    "lng": 139.7158203,
    "fetched_ok": true
  },
  {
    "id": "oakhouse_15881",
    "oakhouse_id": "15881",
    "kind": "apartment",
    "name": "아쿠아플레이스 교토 라쿠난 Ⅲ",
    "url": "https://www.oakhouse.jp/kr/apartment/15881",
    "address": "교토부 교토시 가라하시가와쿠보초",
    "lat": 34.9780502,
    "lng": 135.7362061,
    "fetched_ok": true
  },
  {
    "id": "oakhouse_18084",
    "oakhouse_id": "18084",
    "kind": "apartment",
    "name": "아리엣타 미나미카마타",
    "url": "https://www.oakhouse.jp/kr/apartment/18084",
    "address": "도쿄도 오타구 미나미카마타 2초메",
    "lat": 35.5568657,
    "lng": 139.7225494,
    "fetched_ok": true
  },
  {
    "id": "oakhouse_16238",
    "oakhouse_id": "16238",
    "kind": "apartment",
    "name": "아크 스퀘어",
    "url": "https://www.oakhouse.jp/kr/apartment/16238",
    "address": "가나가와현 가와사키시 키츠키오마치",
    "lat": 35.5703278,
    "lng": 139.6524811,
    "fetched_ok": true
  },
  {
    "id": "oakhouse_16037",
    "oakhouse_id": "16037",
    "kind": "apartment",
    "name": "알로스 아비코 히가시",
    "url": "https://www.oakhouse.jp/kr/apartment/16037",
    "address": "오사카 부 오사카 시 아비코히가시 3초메",
    "lat": 34.5942688,
    "lng": 135.5108185,
    "fetched_ok": true
  },
  {
    "id": "oakhouse_15077",
    "oakhouse_id": "15077",
    "kind": "apartment",
    "name": "아르테시모 카로",
    "url": "https://www.oakhouse.jp/kr/apartment/15077",
    "address": "도쿄도 시나가와구 가미오사키 3초메",
    "lat": 35.6303291,
    "lng": 139.7196503,
    "fetched_ok": true
  },
  {
    "id": "oakhouse_14588",
    "oakhouse_id": "14588",
    "kind": "apartment",
    "name": "아르테시모 렌나",
    "url": "https://www.oakhouse.jp/kr/apartment/14588",
    "address": "도쿄도 메구로구 가미메구로 3초메",
    "lat": 35.6436005,
    "lng": 139.6911163,
    "fetched_ok": true
  },
  {
    "id": "oakhouse_14713",
    "oakhouse_id": "14713",
    "kind": "apartment",
    "name": "아르테시모르스트",
    "url": "https://www.oakhouse.jp/kr/apartment/14713",
    "address": "도쿄도 나카노구 혼마치 3초메",
    "lat": 35.6955528,
    "lng": 139.6742859,
    "fetched_ok": true
  },
  {
    "id": "oakhouse_14888",
    "oakhouse_id": "14888",
    "kind": "apartment",
    "name": "알티자 우에노게",
    "url": "https://www.oakhouse.jp/kr/apartment/14888",
    "address": "도쿄도 세타가야구 우에노게 4초메",
    "lat": 35.6157913,
    "lng": 139.6370239,
    "fetched_ok": true
  },
  {
    "id": "oakhouse_13898",
    "oakhouse_id": "13898",
    "kind": "apartment",
    "name": "아소시에르 분쿄 하쿠산",
    "url": "https://www.oakhouse.jp/kr/apartment/13898",
    "address": "도쿄도 분쿄구 시라산 4초메",
    "lat": 35.7197571,
    "lng": 139.7481384,
    "fetched_ok": true
  },
  {
    "id": "oakhouse_18075",
    "oakhouse_id": "18075",
    "kind": "apartment",
    "name": "아스테르 아카바네 시모",
    "url": "https://www.oakhouse.jp/kr/apartment/18075",
    "address": "도쿄도 키타구 시모 1초메",
    "lat": 35.7754974,
    "lng": 139.7280731,
    "fetched_ok": true
  },
  {
    "id": "oakhouse_15205",
    "oakhouse_id": "15205",
    "kind": "apartment",
    "name": "아반테 이케가미",
    "url": "https://www.oakhouse.jp/kr/apartment/15205",
    "address": "도쿄도 오타구 주오 7초메",
    "lat": 35.5754738,
    "lng": 139.7125397,
    "fetched_ok": true
  },
  {
    "id": "oakhouse_16262",
    "oakhouse_id": "16262",
    "kind": "apartment",
    "name": "아반테 카츠도키",
    "url": "https://www.oakhouse.jp/kr/apartment/16262",
    "address": "도쿄도 츄오구 가쓰도키 2초메",
    "lat": 35.6578522,
    "lng": 139.7774658,
    "fetched_ok": true
  },
  {
    "id": "oakhouse_15598",
    "oakhouse_id": "15598",
    "kind": "apartment",
    "name": "아베닐 야마토",
    "url": "https://www.oakhouse.jp/kr/apartment/15598",
    "address": "가미쿠사야나기 2초메",
    "lat": 35.4726753,
    "lng": 139.4541168,
    "fetched_ok": true
  },
  {
    "id": "oakhouse_16692",
    "oakhouse_id": "16692",
    "kind": "apartment",
    "name": "아비니티 조후 미나미",
    "url": "https://www.oakhouse.jp/kr/apartment/16692",
    "address": "도쿄도 조후시 타마가와 3초메",
    "lat": 35.645031,
    "lng": 139.5297241,
    "fetched_ok": true
  },
  {
    "id": "oakhouse_13707",
    "oakhouse_id": "13707",
    "kind": "apartment",
    "name": "아지르 코트 동대정",
    "url": "https://www.oakhouse.jp/kr/apartment/13707",
    "address": "도쿄도 시나가와구 히가시오이 2초메",
    "lat": 35.5990982,
    "lng": 139.7394867,
    "fetched_ok": true
  },
  {
    "id": "oakhouse_13924",
    "oakhouse_id": "13924",
    "kind": "apartment",
    "name": "아지르 코트 이케가미",
    "url": "https://www.oakhouse.jp/kr/apartment/13924",
    "address": "도쿄도 오타구 니시카마타 2초메",
    "lat": 35.5704842,
    "lng": 139.7068024,
    "fetched_ok": true
  },
  {
    "id": "oakhouse_16606",
    "oakhouse_id": "16606",
    "kind": "apartment",
    "name": "아큐라 메종",
    "url": "https://www.oakhouse.jp/kr/apartment/16606",
    "address": "오사카 부 오사카 시 텐노지마치키타 1초메",
    "lat": 34.6454659,
    "lng": 135.5218964,
    "fetched_ok": true
  },
  {
    "id": "oakhouse_16242",
    "oakhouse_id": "16242",
    "kind": "apartment",
    "name": "알뤼르",
    "url": "https://www.oakhouse.jp/kr/apartment/16242",
    "address": "미나미마치 3초메",
    "lat": 35.5769958,
    "lng": 140.1340942,
    "fetched_ok": true
  },
  {
    "id": "oakhouse_16839",
    "oakhouse_id": "16839",
    "kind": "apartment",
    "name": "B-WALL 진보초",
    "url": "https://www.oakhouse.jp/kr/apartment/16839",
    "address": "도쿄도 지요다구 칸다 진보초 1초메",
    "lat": 35.6947708,
    "lng": 139.7597198,
    "fetched_ok": true
  },
  {
    "id": "oakhouse_1181",
    "oakhouse_id": "1181",
    "kind": "apartment",
    "name": "BEEHIVE HOUSE SENRIOKA(오사카)",
    "url": "https://www.oakhouse.jp/kr/apartment/1181",
    "address": "일본 오사카부 셋쓰시 센리오카",
    "lat": 34.7896881,
    "lng": 135.5472717,
    "fetched_ok": true
  },
  {
    "id": "oakhouse_1152",
    "oakhouse_id": "1152",
    "kind": "apartment",
    "name": "벨수즈 (교토)",
    "url": "https://www.oakhouse.jp/kr/apartment/1152",
    "address": "교토부 교토시 시모교구 묘만지마치",
    "lat": 35.0028877,
    "lng": 135.7513275,
    "fetched_ok": true
  },
  {
    "id": "oakhouse_16944",
    "oakhouse_id": "16944",
    "kind": "apartment",
    "name": "베라디오 교토 라쿠난 그루브",
    "url": "https://www.oakhouse.jp/kr/apartment/16944",
    "address": "교토부 교토시 가라하시가와쿠보초",
    "lat": 34.9780388,
    "lng": 135.7354889,
    "fetched_ok": true
  },
  {
    "id": "oakhouse_14677",
    "oakhouse_id": "14677",
    "kind": "apartment",
    "name": "Bandobashi KNOTS",
    "url": "https://www.oakhouse.jp/kr/apartment/14677",
    "address": "가나가와현 요코하마시 시라묘초 3초메",
    "lat": 35.4355812,
    "lng": 139.6256104,
    "fetched_ok": true
  },
  {
    "id": "oakhouse_16878",
    "oakhouse_id": "16878",
    "kind": "apartment",
    "name": "벨라지오 고쇼 히가시",
    "url": "https://www.oakhouse.jp/kr/apartment/16878",
    "address": "교토부 교토시 이세야초",
    "lat": 35.0166893,
    "lng": 135.7692108,
    "fetched_ok": true
  },
  {
    "id": "oakhouse_15878",
    "oakhouse_id": "15878",
    "kind": "apartment",
    "name": "벨라지오 카라스마오이케",
    "url": "https://www.oakhouse.jp/kr/apartment/15878",
    "address": "교토부 교토시 니시요코초",
    "lat": 35.0111351,
    "lng": 135.7570801,
    "fetched_ok": true
  },
  {
    "id": "oakhouse_15985",
    "oakhouse_id": "15985",
    "kind": "apartment",
    "name": "벨라지오 시조보리카와",
    "url": "https://www.oakhouse.jp/kr/apartment/15985",
    "address": "교토부 교토시 시조보리카와초",
    "lat": 35.0028343,
    "lng": 135.7516479,
    "fetched_ok": true
  },
  {
    "id": "oakhouse_15879",
    "oakhouse_id": "15879",
    "kind": "apartment",
    "name": "벨라지오 시조 카라스마",
    "url": "https://www.oakhouse.jp/kr/apartment/15879",
    "address": "교토부 교토시 오사무카마치",
    "lat": 35.0019913,
    "lng": 135.7608185,
    "fetched_ok": true
  },
  {
    "id": "oakhouse_15986",
    "oakhouse_id": "15986",
    "kind": "apartment",
    "name": "벨라지오 시조카라스마 Ⅲ",
    "url": "https://www.oakhouse.jp/kr/apartment/15986",
    "address": "교토부 교토시 시라쿠텐초",
    "lat": 35.0020828,
    "lng": 135.7581635,
    "fetched_ok": true
  },
  {
    "id": "oakhouse_15874",
    "oakhouse_id": "15874",
    "kind": "apartment",
    "name": "벨라지오 월드아이 교토 엔마치",
    "url": "https://www.oakhouse.jp/kr/apartment/15874",
    "address": "교토부 교토시 하나조노간키타마치",
    "lat": 35.0213699,
    "lng": 135.724411,
    "fetched_ok": true
  },
  {
    "id": "oakhouse_16856",
    "oakhouse_id": "16856",
    "kind": "apartment",
    "name": "벨그란데 요시노초",
    "url": "https://www.oakhouse.jp/kr/apartment/16856",
    "address": "가나가와현 요코하마시 무츠초 2초메",
    "lat": 35.4283295,
    "lng": 139.6201477,
    "fetched_ok": true
  },
  {
    "id": "oakhouse_16191",
    "oakhouse_id": "16191",
    "kind": "apartment",
    "name": "벨쥬레 다카나와",
    "url": "https://www.oakhouse.jp/kr/apartment/16191",
    "address": "도쿄도 미나토구 다카나와 3초메",
    "lat": 35.6338501,
    "lng": 139.7333069,
    "fetched_ok": true
  },
  {
    "id": "oakhouse_16870",
    "oakhouse_id": "16870",
    "kind": "apartment",
    "name": "블랑시에스타 아사쿠사 카미나리몬",
    "url": "https://www.oakhouse.jp/kr/apartment/16870",
    "address": "도쿄도 다이토구 카미나리몬 1초메",
    "lat": 35.7108078,
    "lng": 139.7937469,
    "fetched_ok": true
  },
  {
    "id": "oakhouse_14825",
    "oakhouse_id": "14825",
    "kind": "apartment",
    "name": "블랑쉬 코엔지",
    "url": "https://www.oakhouse.jp/kr/apartment/14825",
    "address": "도쿄도 나카노구 야마토초 3초메",
    "lat": 35.7101898,
    "lng": 139.6491241,
    "fetched_ok": true
  },
  {
    "id": "oakhouse_13706",
    "oakhouse_id": "13706",
    "kind": "apartment",
    "name": "블랑쉬 신나카노",
    "url": "https://www.oakhouse.jp/kr/apartment/13706",
    "address": "도쿄도 나카노구 혼마치 4초메",
    "lat": 35.6952972,
    "lng": 139.667984,
    "fetched_ok": true
  },
  {
    "id": "oakhouse_14675",
    "oakhouse_id": "14675",
    "kind": "apartment",
    "name": "블랑뮈르 요코하마 츠루미 II",
    "url": "https://www.oakhouse.jp/kr/apartment/14675",
    "address": "가나가와현 요코하마시 생보리 4초메",
    "lat": 35.4986229,
    "lng": 139.6712799,
    "fetched_ok": true
  },
  {
    "id": "oakhouse_16925",
    "oakhouse_id": "16925",
    "kind": "apartment",
    "name": "블룸 테라스",
    "url": "https://www.oakhouse.jp/kr/apartment/16925",
    "address": "가나가와현 사가미하라시 후치노베 5초메",
    "lat": 35.5685463,
    "lng": 139.40065,
    "fetched_ok": true
  },
  {
    "id": "oakhouse_14557",
    "oakhouse_id": "14557",
    "kind": "apartment",
    "name": "브레시아 니혼바시 카키가라초",
    "url": "https://www.oakhouse.jp/kr/apartment/14557",
    "address": "도쿄도 츄오구 니혼바시 니혼바시 카키가라쵸 1초메",
    "lat": 35.6819687,
    "lng": 139.7840424,
    "fetched_ok": true
  },
  {
    "id": "oakhouse_18068",
    "oakhouse_id": "18068",
    "kind": "apartment",
    "name": "브라이트코트 하타가야",
    "url": "https://www.oakhouse.jp/kr/apartment/18068",
    "address": "도쿄도 시부야구 하타가야 2초메",
    "lat": 35.6767769,
    "lng": 139.6730194,
    "fetched_ok": true
  },
  {
    "id": "oakhouse_15940",
    "oakhouse_id": "15940",
    "kind": "apartment",
    "name": "브리리안 석양 언덕",
    "url": "https://www.oakhouse.jp/kr/apartment/15940",
    "address": "오사카 부 오사카 시 이쿠타마지마치",
    "lat": 34.6610985,
    "lng": 135.5143585,
    "fetched_ok": true
  },
  {
    "id": "oakhouse_17154",
    "oakhouse_id": "17154",
    "kind": "apartment",
    "name": "브라이즈 에비스",
    "url": "https://www.oakhouse.jp/kr/apartment/17154",
    "address": "도쿄도 메구로구 미타 1초메",
    "lat": 35.6399803,
    "lng": 139.7124634,
    "fetched_ok": true
  },
  {
    "id": "oakhouse_14492",
    "oakhouse_id": "14492",
    "kind": "apartment",
    "name": "브루노 코트 카마타",
    "url": "https://www.oakhouse.jp/kr/apartment/14492",
    "address": "도쿄도 오타구 카마타 4초메",
    "lat": 35.5614891,
    "lng": 139.7212982,
    "fetched_ok": true
  },
  {
    "id": "oakhouse_1046",
    "oakhouse_id": "1046",
    "kind": "apartment",
    "name": "카덴차 사쿠라신마치",
    "url": "https://www.oakhouse.jp/kr/apartment/1046",
    "address": "도쿄도 세타가야구 사쿠라신마치",
    "lat": 35.6326599,
    "lng": 139.6454926,
    "fetched_ok": true
  },
  {
    "id": "oakhouse_381",
    "oakhouse_id": "381",
    "kind": "house",
    "name": "카페로즈 도쿄",
    "url": "https://www.oakhouse.jp/kr/house/381",
    "address": "도쿄도 오타구 히가시미네마치",
    "lat": 35.5841103,
    "lng": 139.6818237,
    "fetched_ok": true
  },
  {
    "id": "oakhouse_433",
    "oakhouse_id": "433",
    "kind": "house",
    "name": "CAFE 사쿠라 도쿄",
    "url": "https://www.oakhouse.jp/kr/house/433",
    "address": "도쿄도 오타구 니시미네마치",
    "lat": 35.5819435,
    "lng": 139.6781464,
    "fetched_ok": true
  },
  {
    "id": "oakhouse_441",
    "oakhouse_id": "441",
    "kind": "apartment",
    "name": "컨버스 나리마스",
    "url": "https://www.oakhouse.jp/kr/apartment/441",
    "address": "도쿄도 네리마구 아사히쵸",
    "lat": 35.7723656,
    "lng": 139.6259003,
    "fetched_ok": true
  },
  {
    "id": "oakhouse_14730",
    "oakhouse_id": "14730",
    "kind": "apartment",
    "name": "CAPE COD 스기타",
    "url": "https://www.oakhouse.jp/kr/apartment/14730",
    "address": "가나가와현 요코하마시 스기타 3초메",
    "lat": 35.3795471,
    "lng": 139.6155548,
    "fetched_ok": true
  },
  {
    "id": "oakhouse_1106",
    "oakhouse_id": "1106",
    "kind": "apartment",
    "name": "CASA GRACIA히가시이케부쿠로",
    "url": "https://www.oakhouse.jp/kr/apartment/1106",
    "address": "도쿄도 토시마구 히가시이케부쿠로",
    "lat": 35.7312584,
    "lng": 139.7232361,
    "fetched_ok": true
  },
  {
    "id": "oakhouse_1151",
    "oakhouse_id": "1151",
    "kind": "apartment",
    "name": "샤르망 코모리 (교토)",
    "url": "https://www.oakhouse.jp/kr/apartment/1151",
    "address": "교토부 교토시 시모교구 오기사카야초",
    "lat": 35.0019112,
    "lng": 135.7605591,
    "fetched_ok": true
  },
  {
    "id": "oakhouse_455",
    "oakhouse_id": "455",
    "kind": "house",
    "name": "컴파르티아 신주쿠",
    "url": "https://www.oakhouse.jp/kr/house/455",
    "address": "도쿄도 신주쿠구 토미히사쵸",
    "lat": 35.6923523,
    "lng": 139.7172699,
    "fetched_ok": true
  },
  {
    "id": "oakhouse_1184",
    "oakhouse_id": "1184",
    "kind": "apartment",
    "name": "콘포르토 이케부쿠로",
    "url": "https://www.oakhouse.jp/kr/apartment/1184",
    "address": "도쿄도 도시마구 니시이케부쿠로",
    "lat": 35.729641,
    "lng": 139.6994324,
    "fetched_ok": true
  },
  {
    "id": "oakhouse_709",
    "oakhouse_id": "709",
    "kind": "apartment",
    "name": "오크아파트먼트 츠나시마",
    "url": "https://www.oakhouse.jp/kr/apartment/709",
    "address": "카나가와켄 요코하마시 코우호쿠구 츠나시마니시",
    "lat": 35.5359383,
    "lng": 139.6291046,
    "fetched_ok": true
  },
  {
    "id": "oakhouse_593",
    "oakhouse_id": "593",
    "kind": "apartment",
    "name": "크레스토 시미즈쵸",
    "url": "https://www.oakhouse.jp/kr/apartment/593",
    "address": "도쿄도 이타바시구 시미즈쵸",
    "lat": 35.7631226,
    "lng": 139.70578,
    "fetched_ok": true
  },
  {
    "id": "oakhouse_14727",
    "oakhouse_id": "14727",
    "kind": "apartment",
    "name": "카사 프리미어 다이에다",
    "url": "https://www.oakhouse.jp/kr/apartment/14727",
    "address": "도쿄도 세타가야구 다이에다 3초메",
    "lat": 35.6562538,
    "lng": 139.6589508,
    "fetched_ok": true
  },
  {
    "id": "oakhouse_981",
    "oakhouse_id": "981",
    "kind": "house",
    "name": "CASADIA네리마",
    "url": "https://www.oakhouse.jp/kr/house/981",
    "address": "도쿄도 네리마구 네리마",
    "lat": 35.7407799,
    "lng": 139.6473389,
    "fetched_ok": true
  },
  {
    "id": "oakhouse_16943",
    "oakhouse_id": "16943",
    "kind": "apartment",
    "name": "캐슬 키타자와 대교",
    "url": "https://www.oakhouse.jp/kr/apartment/16943",
    "address": "도쿄도 메구로구 오오하시 1초메",
    "lat": 35.6514931,
    "lng": 139.6892242,
    "fetched_ok": true
  },
  {
    "id": "oakhouse_14637",
    "oakhouse_id": "14637",
    "kind": "apartment",
    "name": "세리바시 사사즈카",
    "url": "https://www.oakhouse.jp/kr/apartment/14637",
    "address": "도쿄도 세타가야구 오오하라 1초메",
    "lat": 35.6694069,
    "lng": 139.6633301,
    "fetched_ok": true
  },
  {
    "id": "oakhouse_1185",
    "oakhouse_id": "1185",
    "kind": "apartment",
    "name": "Charman Life Motomachi (모토마치 고베)",
    "url": "https://www.oakhouse.jp/kr/apartment/1185",
    "address": "효고현 고베시 주오구 모토마치도리",
    "lat": 34.6867332,
    "lng": 135.1828461,
    "fetched_ok": true
  },
  {
    "id": "oakhouse_14707",
    "oakhouse_id": "14707",
    "kind": "apartment",
    "name": "샤토르 다구치 가나자와 팔경",
    "url": "https://www.oakhouse.jp/kr/apartment/14707",
    "address": "가나가와현 요코하마시 롯우라 1초메",
    "lat": 35.3282166,
    "lng": 139.6206818,
    "fetched_ok": true
  },
  {
    "id": "oakhouse_15460",
    "oakhouse_id": "15460",
    "kind": "apartment",
    "name": "체리코퍼레이션",
    "url": "https://www.oakhouse.jp/kr/apartment/15460",
    "address": "도쿄도 네리마구 사쿠라다이 1초메",
    "lat": 35.740654,
    "lng": 139.6669464,
    "fetched_ok": true
  },
  {
    "id": "oakhouse_18082",
    "oakhouse_id": "18082",
    "kind": "apartment",
    "name": "시티하우스 요요기",
    "url": "https://www.oakhouse.jp/kr/apartment/18082",
    "address": "도쿄도 시부야구 요요기 1초메",
    "lat": 35.6813354,
    "lng": 139.7024384,
    "fetched_ok": true
  },
  {
    "id": "oakhouse_16706",
    "oakhouse_id": "16706",
    "kind": "apartment",
    "name": "클레르 하타가야",
    "url": "https://www.oakhouse.jp/kr/apartment/16706",
    "address": "도쿄도 시부야구 하타가야 3초메",
    "lat": 35.6814995,
    "lng": 139.6737518,
    "fetched_ok": true
  },
  {
    "id": "oakhouse_14532",
    "oakhouse_id": "14532",
    "kind": "apartment",
    "name": "클라리사 대로 공원",
    "url": "https://www.oakhouse.jp/kr/apartment/14532",
    "address": "가나가와현 요코하마시 마가네초 2초메",
    "lat": 35.4373856,
    "lng": 139.6285553,
    "fetched_ok": true
  },
  {
    "id": "oakhouse_16932",
    "oakhouse_id": "16932",
    "kind": "apartment",
    "name": "크레비스타 한토바시",
    "url": "https://www.oakhouse.jp/kr/apartment/16932",
    "address": "가나가와현 요코하마시 다카네초 3초메",
    "lat": 35.4364777,
    "lng": 139.6253204,
    "fetched_ok": true
  },
  {
    "id": "oakhouse_16942",
    "oakhouse_id": "16942",
    "kind": "apartment",
    "name": "크레비스타 한토바시 II",
    "url": "https://www.oakhouse.jp/kr/apartment/16942",
    "address": "가나가와현 요코하마시 시라묘초 4초메",
    "lat": 35.4349899,
    "lng": 139.6246185,
    "fetched_ok": true
  },
  {
    "id": "oakhouse_14509",
    "oakhouse_id": "14509",
    "kind": "apartment",
    "name": "크레비스타 시바마타",
    "url": "https://www.oakhouse.jp/kr/apartment/14509",
    "address": "도쿄도 가쓰시카구 시바마타 3초메",
    "lat": 35.7620316,
    "lng": 139.8726044,
    "fetched_ok": true
  },
  {
    "id": "oakhouse_18086",
    "oakhouse_id": "18086",
    "kind": "apartment",
    "name": "크레비아 니혼바시",
    "url": "https://www.oakhouse.jp/kr/apartment/18086",
    "address": "도쿄도 주오구 니혼바시 가이카초 1초메",
    "lat": 35.6823654,
    "lng": 139.7823486,
    "fetched_ok": true
  },
  {
    "id": "oakhouse_18061",
    "oakhouse_id": "18061",
    "kind": "apartment",
    "name": "크레비아 니혼바시 하마초 공원",
    "url": "https://www.oakhouse.jp/kr/apartment/18061",
    "address": "도쿄도 주오구 니혼바시 하마초 1초메",
    "lat": 35.6897507,
    "lng": 139.7867889,
    "fetched_ok": true
  },
  {
    "id": "oakhouse_15493",
    "oakhouse_id": "15493",
    "kind": "apartment",
    "name": "크레비스타 아야세 II",
    "url": "https://www.oakhouse.jp/kr/apartment/15493",
    "address": "도쿄도 아다치구 아야세 5초메",
    "lat": 35.7680511,
    "lng": 139.8289185,
    "fetched_ok": true
  },
  {
    "id": "oakhouse_18070",
    "oakhouse_id": "18070",
    "kind": "apartment",
    "name": "크레비스타 이케부쿠로 웨스트",
    "url": "https://www.oakhouse.jp/kr/apartment/18070",
    "address": "도쿄도 이타바시구 나카마루초",
    "lat": 35.7400169,
    "lng": 139.7050018,
    "fetched_ok": true
  },
  {
    "id": "oakhouse_14745",
    "oakhouse_id": "14745",
    "kind": "apartment",
    "name": "크레비스타 이타바시 니시다이",
    "url": "https://www.oakhouse.jp/kr/apartment/14745",
    "address": "도쿄도 이타바시구 다카시마다이라 1초메",
    "lat": 35.7860909,
    "lng": 139.6717682,
    "fetched_ok": true
  },
  {
    "id": "oakhouse_11289",
    "oakhouse_id": "11289",
    "kind": "apartment",
    "name": "크레비스타 이타바시 니시다이 II",
    "url": "https://www.oakhouse.jp/kr/apartment/11289",
    "address": "도쿄도 이타바시구 다카시마아키히라세초메",
    "lat": 35.7911339,
    "lng": 139.6690826,
    "fetched_ok": true
  },
  {
    "id": "oakhouse_13113",
    "oakhouse_id": "13113",
    "kind": "apartment",
    "name": "크레비스타 이타바시 니시다이 Ⅲ",
    "url": "https://www.oakhouse.jp/kr/apartment/13113",
    "address": "도쿄도 이타바시구 다카시마다이라 9초메",
    "lat": 35.7903481,
    "lng": 139.6685028,
    "fetched_ok": true
  },
  {
    "id": "oakhouse_14612",
    "oakhouse_id": "14612",
    "kind": "apartment",
    "name": "크레비스타 이타바시 토키와다이",
    "url": "https://www.oakhouse.jp/kr/apartment/14612",
    "address": "도쿄도 이타바시구 히가시신초 1초메",
    "lat": 35.7568436,
    "lng": 139.6847229,
    "fetched_ok": true
  },
  {
    "id": "oakhouse_15589",
    "oakhouse_id": "15589",
    "kind": "apartment",
    "name": "크레비스타 고엔지",
    "url": "https://www.oakhouse.jp/kr/apartment/15589",
    "address": "도쿄도 스기나미구 코엔지키타 4초메",
    "lat": 35.7111931,
    "lng": 139.6442108,
    "fetched_ok": true
  },
  {
    "id": "oakhouse_14504",
    "oakhouse_id": "14504",
    "kind": "apartment",
    "name": "크레비스타 무사시코기",
    "url": "https://www.oakhouse.jp/kr/apartment/14504",
    "address": "가나가와현 가와사키시 가미마루코산오초 1초메",
    "lat": 35.5779343,
    "lng": 139.6665497,
    "fetched_ok": true
  },
  {
    "id": "oakhouse_15062",
    "oakhouse_id": "15062",
    "kind": "apartment",
    "name": "크레비스타 나카노 오치아이",
    "url": "https://www.oakhouse.jp/kr/apartment/15062",
    "address": "도쿄도 나카노구 가미타카다 1초메",
    "lat": 35.7100258,
    "lng": 139.6814117,
    "fetched_ok": true
  },
  {
    "id": "oakhouse_14755",
    "oakhouse_id": "14755",
    "kind": "apartment",
    "name": "크레비스타 네리마 사쿠라다이 II",
    "url": "https://www.oakhouse.jp/kr/apartment/14755",
    "address": "도쿄도 네리마구 토요타마키타 3초메",
    "lat": 35.7340698,
    "lng": 139.6613922,
    "fetched_ok": true
  },
  {
    "id": "oakhouse_14992",
    "oakhouse_id": "14992",
    "kind": "apartment",
    "name": "크레비스타 네리마 사쿠라다이Ⅲ",
    "url": "https://www.oakhouse.jp/kr/apartment/14992",
    "address": "도쿄도 네리마구 토요다마카미 2초메",
    "lat": 35.7378273,
    "lng": 139.6602936,
    "fetched_ok": true
  },
  {
    "id": "oakhouse_14655",
    "oakhouse_id": "14655",
    "kind": "apartment",
    "name": "크레비스타 오츠카",
    "url": "https://www.oakhouse.jp/kr/apartment/14655",
    "address": "도쿄도 도시마구 키타오츠카 3초메",
    "lat": 35.7342758,
    "lng": 139.7240448,
    "fetched_ok": true
  },
  {
    "id": "oakhouse_16461",
    "oakhouse_id": "16461",
    "kind": "apartment",
    "name": "크레비스타 입석",
    "url": "https://www.oakhouse.jp/kr/apartment/16461",
    "address": "도쿄도 가쓰시카구 히가시리츠이시 2초메",
    "lat": 35.7338867,
    "lng": 139.8480835,
    "fetched_ok": true
  },
  {
    "id": "oakhouse_17036",
    "oakhouse_id": "17036",
    "kind": "apartment",
    "name": "크레비스타 다테이시 II",
    "url": "https://www.oakhouse.jp/kr/apartment/17036",
    "address": "도쿄도 가쓰시카구 오쿠도 2초메",
    "lat": 35.7350159,
    "lng": 139.8567963,
    "fetched_ok": true
  },
  {
    "id": "oakhouse_14627",
    "oakhouse_id": "14627",
    "kind": "apartment",
    "name": "크레비스타 토키와다이",
    "url": "https://www.oakhouse.jp/kr/apartment/14627",
    "address": "도쿄도 이타바시구 토키와다이 1초메",
    "lat": 35.7627182,
    "lng": 139.6936798,
    "fetched_ok": true
  },
  {
    "id": "oakhouse_15065",
    "oakhouse_id": "15065",
    "kind": "apartment",
    "name": "크레비스타 요코하마",
    "url": "https://www.oakhouse.jp/kr/apartment/15065",
    "address": "가나가와현 요코하마시 사카에쵸",
    "lat": 35.4715233,
    "lng": 139.6322021,
    "fetched_ok": true
  },
  {
    "id": "oakhouse_14534",
    "oakhouse_id": "14534",
    "kind": "apartment",
    "name": "크레비스타 요코하마 관내",
    "url": "https://www.oakhouse.jp/kr/apartment/14534",
    "address": "가나가와현 요코하마시 나가쿠초 1초메",
    "lat": 35.4372101,
    "lng": 139.6309052,
    "fetched_ok": true
  },
  {
    "id": "oakhouse_17002",
    "oakhouse_id": "17002",
    "kind": "apartment",
    "name": "크레비스타 요코하마 간나이 II",
    "url": "https://www.oakhouse.jp/kr/apartment/17002",
    "address": "가나가와현 요코하마시 만세초 1초메",
    "lat": 35.4365654,
    "lng": 139.6329498,
    "fetched_ok": true
  },
  {
    "id": "oakhouse_17379",
    "oakhouse_id": "17379",
    "kind": "apartment",
    "name": "크레비스타 요코하마 츠나시마",
    "url": "https://www.oakhouse.jp/kr/apartment/17379",
    "address": "가나가와현 요코하마시 타루마치 2초메",
    "lat": 35.531208,
    "lng": 139.638092,
    "fetched_ok": true
  },
  {
    "id": "oakhouse_16857",
    "oakhouse_id": "16857",
    "kind": "apartment",
    "name": "크레비스타 요코하마 츠루미",
    "url": "https://www.oakhouse.jp/kr/apartment/16857",
    "address": "가나가와현 요코하마시 사카에마치도리 4초메",
    "lat": 35.5131187,
    "lng": 139.6904602,
    "fetched_ok": true
  },
  {
    "id": "oakhouse_14701",
    "oakhouse_id": "14701",
    "kind": "apartment",
    "name": "크레비스타 요코하마 야무타",
    "url": "https://www.oakhouse.jp/kr/apartment/14701",
    "address": "가나가와현 요코하마시 야무카 1초메",
    "lat": 35.5288734,
    "lng": 139.678772,
    "fetched_ok": true
  },
  {
    "id": "oakhouse_14605",
    "oakhouse_id": "14605",
    "kind": "apartment",
    "name": "크레비스타 요츠키",
    "url": "https://www.oakhouse.jp/kr/apartment/14605",
    "address": "도쿄도 가쓰시카구 요츠키 4초메",
    "lat": 35.73843,
    "lng": 139.8368378,
    "fetched_ok": true
  },
  {
    "id": "oakhouse_16127",
    "oakhouse_id": "16127",
    "kind": "apartment",
    "name": "크리오 무사시신조 니치반칸",
    "url": "https://www.oakhouse.jp/kr/apartment/16127",
    "address": "가나가와현 가와사키시 신조 5초메",
    "lat": 35.5850258,
    "lng": 139.6284637,
    "fetched_ok": true
  },
  {
    "id": "oakhouse_14731",
    "oakhouse_id": "14731",
    "kind": "apartment",
    "name": "클러스터 사사즈카",
    "url": "https://www.oakhouse.jp/kr/apartment/14731",
    "address": "도쿄도 스기나미구 호난 1초메",
    "lat": 35.6755791,
    "lng": 139.6606293,
    "fetched_ok": true
  },
  {
    "id": "oakhouse_16598",
    "oakhouse_id": "16598",
    "kind": "apartment",
    "name": "컴포리아 리브 교바시",
    "url": "https://www.oakhouse.jp/kr/apartment/16598",
    "address": "오사카 부 오사카 시 히가시노다초 4초메",
    "lat": 34.6987686,
    "lng": 135.5293274,
    "fetched_ok": true
  },
  {
    "id": "oakhouse_15945",
    "oakhouse_id": "15945",
    "kind": "apartment",
    "name": "컴포리아 리브 신오사카 니시노미야하라 솔테라스",
    "url": "https://www.oakhouse.jp/kr/apartment/15945",
    "address": "오사카 부 오사카 시 니시노미야하라 2초메",
    "lat": 34.7358894,
    "lng": 135.4916077,
    "fetched_ok": true
  },
  {
    "id": "oakhouse_1170",
    "oakhouse_id": "1170",
    "kind": "apartment",
    "name": "코프 노무라 롯폰기1",
    "url": "https://www.oakhouse.jp/kr/apartment/1170",
    "address": "도쿄도 미나토구 롯폰기",
    "lat": 35.6649208,
    "lng": 139.7364655,
    "fetched_ok": true
  },
  {
    "id": "oakhouse_1171",
    "oakhouse_id": "1171",
    "kind": "apartment",
    "name": "코프 노무라 롯폰기2",
    "url": "https://www.oakhouse.jp/kr/apartment/1171",
    "address": "도쿄도 미나토구 롯폰기",
    "lat": 35.6647301,
    "lng": 139.7367249,
    "fetched_ok": true
  },
  {
    "id": "oakhouse_18047",
    "oakhouse_id": "18047",
    "kind": "apartment",
    "name": "코트하우스 나카노부",
    "url": "https://www.oakhouse.jp/kr/apartment/18047",
    "address": "도쿄도 시나가와구 나카노부 1초메",
    "lat": 35.6135368,
    "lng": 139.7108002,
    "fetched_ok": true
  },
  {
    "id": "oakhouse_16491",
    "oakhouse_id": "16491",
    "kind": "apartment",
    "name": "크레덴스 카미야초",
    "url": "https://www.oakhouse.jp/kr/apartment/16491",
    "address": "도쿄도 미나토구 토라노몬 3초메",
    "lat": 35.6623421,
    "lng": 139.7470245,
    "fetched_ok": true
  },
  {
    "id": "oakhouse_14545",
    "oakhouse_id": "14545",
    "kind": "apartment",
    "name": "크레비스타 히가시무카이도",
    "url": "https://www.oakhouse.jp/kr/apartment/14545",
    "address": "도쿄도 스미다구 히가시무카이시마 6초메",
    "lat": 35.7230911,
    "lng": 139.8227081,
    "fetched_ok": true
  },
  {
    "id": "oakhouse_14986",
    "oakhouse_id": "14986",
    "kind": "apartment",
    "name": "크레비스타 방남초 II",
    "url": "https://www.oakhouse.jp/kr/apartment/14986",
    "address": "도쿄도 스기나미구 이즈미 4초메",
    "lat": 35.6797562,
    "lng": 139.6551056,
    "fetched_ok": true
  },
  {
    "id": "oakhouse_15064",
    "oakhouse_id": "15064",
    "kind": "apartment",
    "name": "크레비스타 이타바시 시무라",
    "url": "https://www.oakhouse.jp/kr/apartment/15064",
    "address": "도쿄도 이타바시구 사카시타 1초메",
    "lat": 35.7797279,
    "lng": 139.6830444,
    "fetched_ok": true
  },
  {
    "id": "oakhouse_16958",
    "oakhouse_id": "16958",
    "kind": "apartment",
    "name": "크레비스타 가메이도 II",
    "url": "https://www.oakhouse.jp/kr/apartment/16958",
    "address": "도쿄도 고토구 가메이도 4초메",
    "lat": 35.70438,
    "lng": 139.8271027,
    "fetched_ok": true
  },
  {
    "id": "oakhouse_17324",
    "oakhouse_id": "17324",
    "kind": "apartment",
    "name": "크레비스타 미나미센주",
    "url": "https://www.oakhouse.jp/kr/apartment/17324",
    "address": "도쿄도 다이토구 니혼제2초메",
    "lat": 35.7287979,
    "lng": 139.7991028,
    "fetched_ok": true
  },
  {
    "id": "oakhouse_16953",
    "oakhouse_id": "16953",
    "kind": "apartment",
    "name": "크레비스타 나리마스",
    "url": "https://www.oakhouse.jp/kr/apartment/16953",
    "address": "도쿄도 이타바시구 나리마스 4초메",
    "lat": 35.783062,
    "lng": 139.6378021,
    "fetched_ok": true
  },
  {
    "id": "oakhouse_16954",
    "oakhouse_id": "16954",
    "kind": "apartment",
    "name": "크레비스타 나리마스 II",
    "url": "https://www.oakhouse.jp/kr/apartment/16954",
    "address": "도쿄도 이타바시구 아카츠카 3초메",
    "lat": 35.7803917,
    "lng": 139.6370544,
    "fetched_ok": true
  },
  {
    "id": "oakhouse_14502",
    "oakhouse_id": "14502",
    "kind": "apartment",
    "name": "크레비스타 오이마치",
    "url": "https://www.oakhouse.jp/kr/apartment/14502",
    "address": "도쿄도 시나가와구 니하 1초메",
    "lat": 35.6064606,
    "lng": 139.7278137,
    "fetched_ok": true
  },
  {
    "id": "oakhouse_17380",
    "oakhouse_id": "17380",
    "kind": "apartment",
    "name": "크레비스타 소시가야 오쿠라",
    "url": "https://www.oakhouse.jp/kr/apartment/17380",
    "address": "도쿄도 세타가야구 키누타 8초메",
    "lat": 35.6422043,
    "lng": 139.6065674,
    "fetched_ok": true
  },
  {
    "id": "oakhouse_15647",
    "oakhouse_id": "15647",
    "kind": "apartment",
    "name": "크리스탈그랜츠 교토 니시오오지",
    "url": "https://www.oakhouse.jp/kr/apartment/15647",
    "address": "교토부 교토시 기치조인고이케쵸",
    "lat": 34.9742317,
    "lng": 135.7353516,
    "fetched_ok": true
  },
  {
    "id": "oakhouse_15942",
    "oakhouse_id": "15942",
    "kind": "apartment",
    "name": "크리스탈그랜츠 난바 미나미 카스텔",
    "url": "https://www.oakhouse.jp/kr/apartment/15942",
    "address": "오사카 부 오사카 시 모토마치 3초메",
    "lat": 34.6597633,
    "lng": 135.4941711,
    "fetched_ok": true
  },
  {
    "id": "oakhouse_18099",
    "oakhouse_id": "18099",
    "kind": "apartment",
    "name": "크리스탈 사사즈카 PART 1",
    "url": "https://www.oakhouse.jp/kr/apartment/18099",
    "address": "도쿄도 나카노구 미나미다이 4초메",
    "lat": 35.6770859,
    "lng": 139.6642914,
    "fetched_ok": true
  },
  {
    "id": "oakhouse_14628",
    "oakhouse_id": "14628",
    "kind": "apartment",
    "name": "신시아 포디 하타가야",
    "url": "https://www.oakhouse.jp/kr/apartment/14628",
    "address": "도쿄도 시부야구 하타가야 1초메",
    "lat": 35.6760597,
    "lng": 139.6737366,
    "fetched_ok": true
  },
  {
    "id": "oakhouse_13526",
    "oakhouse_id": "13526",
    "kind": "apartment",
    "name": "신시아 센다기",
    "url": "https://www.oakhouse.jp/kr/apartment/13526",
    "address": "도쿄도 분쿄구 센다기 3초메",
    "lat": 35.7255478,
    "lng": 139.7629395,
    "fetched_ok": true
  },
  {
    "id": "oakhouse_14587",
    "oakhouse_id": "14587",
    "kind": "apartment",
    "name": "크로스톤 가와사키",
    "url": "https://www.oakhouse.jp/kr/apartment/14587",
    "address": "가나가와현 가와사키시 신카와도리",
    "lat": 35.5272293,
    "lng": 139.7044678,
    "fetched_ok": true
  },
  {
    "id": "oakhouse_675",
    "oakhouse_id": "675",
    "kind": "house",
    "name": "다이칸야마 쉐어하우스",
    "url": "https://www.oakhouse.jp/kr/house/675",
    "address": "도쿄도 시부야구 우구이스다니쵸",
    "lat": 35.6533813,
    "lng": 139.7040405,
    "fetched_ok": true
  },
  {
    "id": "oakhouse_1009",
    "oakhouse_id": "1009",
    "kind": "apartment",
    "name": "드웰 이나리야마 (Shinyurigaoka)",
    "url": "https://www.oakhouse.jp/kr/apartment/1009",
    "address": "카나가와켄 카와사키시 아소구 카미아사오",
    "lat": 35.5868835,
    "lng": 139.497879,
    "fetched_ok": true
  },
  {
    "id": "oakhouse_12325",
    "oakhouse_id": "12325",
    "kind": "apartment",
    "name": "다이호 플라자 다카다노바바 II",
    "url": "https://www.oakhouse.jp/kr/apartment/12325",
    "address": "도쿄도 신주쿠구 다카다노바바바바초메",
    "lat": 35.7119598,
    "lng": 139.697403,
    "fetched_ok": true
  },
  {
    "id": "oakhouse_18088",
    "oakhouse_id": "18088",
    "kind": "apartment",
    "name": "다만사라 와세다",
    "url": "https://www.oakhouse.jp/kr/apartment/18088",
    "address": "도쿄도 신주쿠구 와세다 츠루마키초",
    "lat": 35.7100334,
    "lng": 139.7235107,
    "fetched_ok": true
  },
  {
    "id": "oakhouse_14601",
    "oakhouse_id": "14601",
    "kind": "apartment",
    "name": "디아레이샤스 덴엔조후미나미",
    "url": "https://www.oakhouse.jp/kr/apartment/14601",
    "address": "도쿄도 오타구 히가시야마치",
    "lat": 35.5844421,
    "lng": 139.6814117,
    "fetched_ok": true
  },
  {
    "id": "oakhouse_14596",
    "oakhouse_id": "14596",
    "kind": "apartment",
    "name": "디아레이셔스 요코하마 요시노마치",
    "url": "https://www.oakhouse.jp/kr/apartment/14596",
    "address": "가나가와현 요코하마시 신카와초 5초메",
    "lat": 35.4341698,
    "lng": 139.616745,
    "fetched_ok": true
  },
  {
    "id": "oakhouse_14610",
    "oakhouse_id": "14610",
    "kind": "apartment",
    "name": "디아레이샤스 미나미사마치",
    "url": "https://www.oakhouse.jp/kr/apartment/14610",
    "address": "도쿄도 고토구 미나미사 3초메",
    "lat": 35.6731758,
    "lng": 139.8275146,
    "fetched_ok": true
  },
  {
    "id": "oakhouse_14495",
    "oakhouse_id": "14495",
    "kind": "apartment",
    "name": "디아레이셔스 요코하마 WEST",
    "url": "https://www.oakhouse.jp/kr/apartment/14495",
    "address": "가나가와현 요코하마시 미나미아사마초",
    "lat": 35.4558487,
    "lng": 139.6086121,
    "fetched_ok": true
  },
  {
    "id": "oakhouse_14673",
    "oakhouse_id": "14673",
    "kind": "apartment",
    "name": "디아레이셔스 카마타 II",
    "url": "https://www.oakhouse.jp/kr/apartment/14673",
    "address": "도쿄도 오타구 니시카마타 7초메",
    "lat": 35.5633965,
    "lng": 139.7095795,
    "fetched_ok": true
  },
  {
    "id": "oakhouse_14653",
    "oakhouse_id": "14653",
    "kind": "apartment",
    "name": "디알레시아스 항구 해안",
    "url": "https://www.oakhouse.jp/kr/apartment/14653",
    "address": "도쿄도 미나토구 가이간 3초메",
    "lat": 35.6444855,
    "lng": 139.7556152,
    "fetched_ok": true
  },
  {
    "id": "oakhouse_14684",
    "oakhouse_id": "14684",
    "kind": "apartment",
    "name": "디아레이셔스 요코하마 사우스 팰리스",
    "url": "https://www.oakhouse.jp/kr/apartment/14684",
    "address": "가나가와현 요코하마시 경대",
    "lat": 35.4392738,
    "lng": 139.6143036,
    "fetched_ok": true
  },
  {
    "id": "oakhouse_14066",
    "oakhouse_id": "14066",
    "kind": "apartment",
    "name": "딜라이트 남烏山",
    "url": "https://www.oakhouse.jp/kr/apartment/14066",
    "address": "도쿄도 세타가야구 미나미카라산 6초메",
    "lat": 35.669384,
    "lng": 139.5963287,
    "fetched_ok": true
  },
  {
    "id": "oakhouse_18105",
    "oakhouse_id": "18105",
    "kind": "apartment",
    "name": "듀프레 미나미센주",
    "url": "https://www.oakhouse.jp/kr/apartment/18105",
    "address": "도쿄도 아라카와구 미나미센주 6초메",
    "lat": 35.7389946,
    "lng": 139.7963409,
    "fetched_ok": true
  },
  {
    "id": "oakhouse_14635",
    "oakhouse_id": "14635",
    "kind": "apartment",
    "name": "다이너시티 니시신주쿠",
    "url": "https://www.oakhouse.jp/kr/apartment/14635",
    "address": "도쿄도 신주쿠구 키타신주쿠 1초메",
    "lat": 35.6973686,
    "lng": 139.6907959,
    "fetched_ok": true
  },
  {
    "id": "oakhouse_17059",
    "oakhouse_id": "17059",
    "kind": "apartment",
    "name": "ERCity's 다치바나 역 앞",
    "url": "https://www.oakhouse.jp/kr/apartment/17059",
    "address": "효고현 아마가사키 시 나나마츠초 1초메",
    "lat": 34.7346573,
    "lng": 135.3998108,
    "fetched_ok": true
  },
  {
    "id": "oakhouse_17045",
    "oakhouse_id": "17045",
    "kind": "apartment",
    "name": "ES-Grande Bunkyo Hakusan",
    "url": "https://www.oakhouse.jp/kr/apartment/17045",
    "address": "도쿄도 분쿄구 시라산 1초메",
    "lat": 35.7205048,
    "lng": 139.7526703,
    "fetched_ok": true
  },
  {
    "id": "oakhouse_17431",
    "oakhouse_id": "17431",
    "kind": "apartment",
    "name": "ES-Grande 히가시나카노",
    "url": "https://www.oakhouse.jp/kr/apartment/17431",
    "address": "도쿄도 나카노구 가미타카다 1초메",
    "lat": 35.7095909,
    "lng": 139.6781311,
    "fetched_ok": true
  },
  {
    "id": "oakhouse_1050",
    "oakhouse_id": "1050",
    "kind": "apartment",
    "name": "ESLEAD교토역앞",
    "url": "https://www.oakhouse.jp/kr/apartment/1050",
    "address": "교토부 교토시 시모쿄우구 아메야쵸",
    "lat": 34.9893837,
    "lng": 135.7612305,
    "fetched_ok": true
  },
  {
    "id": "oakhouse_1051",
    "oakhouse_id": "1051",
    "kind": "apartment",
    "name": "ESLEAD 츠카모토제2  (Osaka)",
    "url": "https://www.oakhouse.jp/kr/apartment/1051",
    "address": "오사카 부 오사카 시 요도가와구 츠카모토",
    "lat": 34.7145233,
    "lng": 135.4688568,
    "fetched_ok": true
  },
  {
    "id": "oakhouse_1048",
    "oakhouse_id": "1048",
    "kind": "apartment",
    "name": "ESLEAD 우메다히가시  (OSAKA)",
    "url": "https://www.oakhouse.jp/kr/apartment/1048",
    "address": "오사카 부 오사카 시 기타구 텐만",
    "lat": 34.6956177,
    "lng": 135.5151825,
    "fetched_ok": true
  },
  {
    "id": "oakhouse_13826",
    "oakhouse_id": "13826",
    "kind": "apartment",
    "name": "엘파로 이케지리",
    "url": "https://www.oakhouse.jp/kr/apartment/13826",
    "address": "도쿄도 세타가야구 이케지리 2초메",
    "lat": 35.6484947,
    "lng": 139.6828918,
    "fetched_ok": true
  },
  {
    "id": "oakhouse_13828",
    "oakhouse_id": "13828",
    "kind": "apartment",
    "name": "엘파로 코마자와 대학",
    "url": "https://www.oakhouse.jp/kr/apartment/13828",
    "address": "도쿄도 세타가야구 가미마 1초메",
    "lat": 35.6366043,
    "lng": 139.6680603,
    "fetched_ok": true
  },
  {
    "id": "oakhouse_13914",
    "oakhouse_id": "13914",
    "kind": "apartment",
    "name": "엘파로 메구로 Ⅰ",
    "url": "https://www.oakhouse.jp/kr/apartment/13914",
    "address": "도쿄도 메구로구 시모메구로 2초메",
    "lat": 35.6327248,
    "lng": 139.7112885,
    "fetched_ok": true
  },
  {
    "id": "oakhouse_15210",
    "oakhouse_id": "15210",
    "kind": "apartment",
    "name": "엘파로 나카노아라이 약사",
    "url": "https://www.oakhouse.jp/kr/apartment/15210",
    "address": "도쿄도 나카노구 아라이 5초메",
    "lat": 35.7145958,
    "lng": 139.6688843,
    "fetched_ok": true
  },
  {
    "id": "oakhouse_15084",
    "oakhouse_id": "15084",
    "kind": "apartment",
    "name": "엘파로 오오카야마 II",
    "url": "https://www.oakhouse.jp/kr/apartment/15084",
    "address": "도쿄도 메구로구 오오카야마 1초메",
    "lat": 35.6119804,
    "lng": 139.6842499,
    "fetched_ok": true
  },
  {
    "id": "oakhouse_13891",
    "oakhouse_id": "13891",
    "kind": "apartment",
    "name": "엘파로 오츠카 Ⅳ",
    "url": "https://www.oakhouse.jp/kr/apartment/13891",
    "address": "도쿄도 토시마구 가미이케부쿠로 1초메",
    "lat": 35.7344704,
    "lng": 139.7217102,
    "fetched_ok": true
  },
  {
    "id": "oakhouse_15220",
    "oakhouse_id": "15220",
    "kind": "apartment",
    "name": "엘파로 요요기",
    "url": "https://www.oakhouse.jp/kr/apartment/15220",
    "address": "도쿄도 시부야구 요요기 3초메",
    "lat": 35.6812592,
    "lng": 139.697052,
    "fetched_ok": true
  },
  {
    "id": "oakhouse_15069",
    "oakhouse_id": "15069",
    "kind": "apartment",
    "name": "엘스탠자 나카노아라이",
    "url": "https://www.oakhouse.jp/kr/apartment/15069",
    "address": "도쿄도 나카노구 아라이 1초메",
    "lat": 35.7126198,
    "lng": 139.6681213,
    "fetched_ok": true
  },
  {
    "id": "oakhouse_14568",
    "oakhouse_id": "14568",
    "kind": "apartment",
    "name": "에피서 시바마타",
    "url": "https://www.oakhouse.jp/kr/apartment/14568",
    "address": "도쿄도 가쓰시카구 시바마타 5초메",
    "lat": 35.7499504,
    "lng": 139.8798981,
    "fetched_ok": true
  },
  {
    "id": "oakhouse_12381",
    "oakhouse_id": "12381",
    "kind": "apartment",
    "name": "에스코트東大前",
    "url": "https://www.oakhouse.jp/kr/apartment/12381",
    "address": "도쿄도 분쿄구 무카가오카쵸메",
    "lat": 35.722477,
    "lng": 139.7542725,
    "fetched_ok": true
  },
  {
    "id": "oakhouse_16604",
    "oakhouse_id": "16604",
    "kind": "apartment",
    "name": "에스파시오 시나가와 오이",
    "url": "https://www.oakhouse.jp/kr/apartment/16604",
    "address": "도쿄도 시나가와구 히가시오이 2초메",
    "lat": 35.6021919,
    "lng": 139.7404785,
    "fetched_ok": true
  },
  {
    "id": "oakhouse_1132",
    "oakhouse_id": "1132",
    "kind": "house",
    "name": "에스쁘아 서편",
    "url": "https://www.oakhouse.jp/kr/house/1132",
    "address": "Tokyo-to Bunkyo-ku Nishikata",
    "lat": 35.7149506,
    "lng": 139.7572632,
    "fetched_ok": true
  },
  {
    "id": "oakhouse_17537",
    "oakhouse_id": "17537",
    "kind": "apartment",
    "name": "에스템 코트 교토 니조",
    "url": "https://www.oakhouse.jp/kr/apartment/17537",
    "address": "교토부 교토시 히데도마에노초",
    "lat": 35.0231209,
    "lng": 135.7424774,
    "fetched_ok": true
  },
  {
    "id": "oakhouse_17554",
    "oakhouse_id": "17554",
    "kind": "apartment",
    "name": "에스템 코트 교토 쇼테이",
    "url": "https://www.oakhouse.jp/kr/apartment/17554",
    "address": "교토부 교토시 기치조인 니시노쇼 니시우라마치",
    "lat": 34.9846649,
    "lng": 135.7275543,
    "fetched_ok": true
  },
  {
    "id": "oakhouse_16736",
    "oakhouse_id": "16736",
    "kind": "apartment",
    "name": "에스팀코트 나고야 신에이 Ⅳ 네스트",
    "url": "https://www.oakhouse.jp/kr/apartment/16736",
    "address": "신에이 2초메",
    "lat": 35.1679535,
    "lng": 136.9203644,
    "fetched_ok": true
  },
  {
    "id": "oakhouse_16869",
    "oakhouse_id": "16869",
    "kind": "apartment",
    "name": "에스팀코트 오사카 프라임",
    "url": "https://www.oakhouse.jp/kr/apartment/16869",
    "address": "광교1초메",
    "lat": 34.6312027,
    "lng": 135.6038818,
    "fetched_ok": true
  },
  {
    "id": "oakhouse_15900",
    "oakhouse_id": "15900",
    "kind": "apartment",
    "name": "엑셀 히메지",
    "url": "https://www.oakhouse.jp/kr/apartment/15900",
    "address": "동연말 2초메",
    "lat": 34.8225441,
    "lng": 134.6855927,
    "fetched_ok": true
  },
  {
    "id": "oakhouse_17317",
    "oakhouse_id": "17317",
    "kind": "apartment",
    "name": "엑세 벤텐초",
    "url": "https://www.oakhouse.jp/kr/apartment/17317",
    "address": "오사카 부 오사카 시 이치오카모토마치 2초메",
    "lat": 34.6685295,
    "lng": 135.4674835,
    "fetched_ok": true
  },
  {
    "id": "oakhouse_16367",
    "oakhouse_id": "16367",
    "kind": "apartment",
    "name": "엑세난바 니시 II",
    "url": "https://www.oakhouse.jp/kr/apartment/16367",
    "address": "오사카 부 오사카 시 시오쿠사 1초메",
    "lat": 34.6605148,
    "lng": 135.4930573,
    "fetched_ok": true
  },
  {
    "id": "oakhouse_16021",
    "oakhouse_id": "16021",
    "kind": "apartment",
    "name": "엑스 오사카 돔",
    "url": "https://www.oakhouse.jp/kr/apartment/16021",
    "address": "오사카 부 오사카 시 이치오카모토마치 1초메",
    "lat": 34.6688004,
    "lng": 135.4707642,
    "fetched_ok": true
  },
  {
    "id": "oakhouse_15164",
    "oakhouse_id": "15164",
    "kind": "apartment",
    "name": "엑슬란동립석재",
    "url": "https://www.oakhouse.jp/kr/apartment/15164",
    "address": "도쿄도 가쓰시카구 히가시리츠이시 3초메",
    "lat": 35.7348137,
    "lng": 139.8457947,
    "fetched_ok": true
  },
  {
    "id": "oakhouse_17078",
    "oakhouse_id": "17078",
    "kind": "apartment",
    "name": "엑셀랑 마쓰도 II",
    "url": "https://www.oakhouse.jp/kr/apartment/17078",
    "address": "지바현 마쓰도시 마쓰도",
    "lat": 35.7844009,
    "lng": 139.8961487,
    "fetched_ok": true
  },
  {
    "id": "oakhouse_17063",
    "oakhouse_id": "17063",
    "kind": "apartment",
    "name": "이플레이스 무고노소",
    "url": "https://www.oakhouse.jp/kr/apartment/17063",
    "address": "효고현 아마가사키 시 가미노시마초 1초메",
    "lat": 34.7492142,
    "lng": 135.3994598,
    "fetched_ok": true
  },
  {
    "id": "oakhouse_16040",
    "oakhouse_id": "16040",
    "kind": "apartment",
    "name": "에스리드 신오사카 더 프리미어 EAST",
    "url": "https://www.oakhouse.jp/kr/apartment/16040",
    "address": "오사카 부 오사카 시 히가시나카지마 2초메",
    "lat": 34.7295151,
    "lng": 135.5056763,
    "fetched_ok": true
  },
  {
    "id": "oakhouse_15902",
    "oakhouse_id": "15902",
    "kind": "apartment",
    "name": "에스리드 고베 산노미야 힐스",
    "url": "https://www.oakhouse.jp/kr/apartment/15902",
    "address": "효고현 고베시 나카야마테도리 2초메",
    "lat": 34.6955948,
    "lng": 135.1908112,
    "fetched_ok": true
  },
  {
    "id": "oakhouse_16066",
    "oakhouse_id": "16066",
    "kind": "apartment",
    "name": "에스 리드 롱리드 파크 애비뉴 PARK AVENUE",
    "url": "https://www.oakhouse.jp/kr/apartment/16066",
    "address": "오사카 부 오사카 시 미나미스미요시 1초메",
    "lat": 34.6095543,
    "lng": 135.5071869,
    "fetched_ok": true
  },
  {
    "id": "oakhouse_15677",
    "oakhouse_id": "15677",
    "kind": "apartment",
    "name": "에스리드 난바 THE FIRST",
    "url": "https://www.oakhouse.jp/kr/apartment/15677",
    "address": "오사카 부 오사카 시 코우치마치 2초메",
    "lat": 34.6693153,
    "lng": 135.4876862,
    "fetched_ok": true
  },
  {
    "id": "oakhouse_15944",
    "oakhouse_id": "15944",
    "kind": "apartment",
    "name": "에스 리드 신오사카 더 마크",
    "url": "https://www.oakhouse.jp/kr/apartment/15944",
    "address": "오사카 부 오사카 시 미야하라 1초메",
    "lat": 34.7377052,
    "lng": 135.499649,
    "fetched_ok": true
  },
  {
    "id": "oakhouse_16050",
    "oakhouse_id": "16050",
    "kind": "apartment",
    "name": "에스리드 신오사카 더 프리미어 WEST",
    "url": "https://www.oakhouse.jp/kr/apartment/16050",
    "address": "오사카 부 오사카 시 히가시나카지마 2초메",
    "lat": 34.7295151,
    "lng": 135.5056763,
    "fetched_ok": true
  },
  {
    "id": "oakhouse_16757",
    "oakhouse_id": "16757",
    "kind": "apartment",
    "name": "에스리드 더 이스트 레지던스 오사카성",
    "url": "https://www.oakhouse.jp/kr/apartment/16757",
    "address": "오사카 부 오사카 시 나카모토 2초메",
    "lat": 34.6791763,
    "lng": 135.5420227,
    "fetched_ok": true
  },
  {
    "id": "oakhouse_16047",
    "oakhouse_id": "16047",
    "kind": "apartment",
    "name": "에스 리드 더 글레어 오사카",
    "url": "https://www.oakhouse.jp/kr/apartment/16047",
    "address": "오사카 부 오사카 시 나카가와니시 1초메",
    "lat": 34.6631355,
    "lng": 135.5419159,
    "fetched_ok": true
  },
  {
    "id": "oakhouse_15943",
    "oakhouse_id": "15943",
    "kind": "apartment",
    "name": "에스리드 더 그랑 오사카 노스",
    "url": "https://www.oakhouse.jp/kr/apartment/15943",
    "address": "오사카 부 오사카 시 히가시아와지 4초메",
    "lat": 34.7393227,
    "lng": 135.5186615,
    "fetched_ok": true
  },
  {
    "id": "oakhouse_16679",
    "oakhouse_id": "16679",
    "kind": "apartment",
    "name": "에스 리드 더 랜드마크 고베",
    "url": "https://www.oakhouse.jp/kr/apartment/16679",
    "address": "효고현 고베시 니시타몬도리 1초메",
    "lat": 34.6796494,
    "lng": 135.1723938,
    "fetched_ok": true
  },
  {
    "id": "oakhouse_16119",
    "oakhouse_id": "16119",
    "kind": "apartment",
    "name": "FABRIC 나카이듀 레지던스",
    "url": "https://www.oakhouse.jp/kr/apartment/16119",
    "address": "도쿄도 신주쿠구 나카오치아이 1초메",
    "lat": 35.7154655,
    "lng": 139.6880035,
    "fetched_ok": true
  },
  {
    "id": "oakhouse_1161",
    "oakhouse_id": "1161",
    "kind": "apartment",
    "name": "FAMILIE 엔마치 (교토)",
    "url": "https://www.oakhouse.jp/kr/apartment/1161",
    "address": "교토부 교토시 나카교구 니시노쿄 오이고몬초",
    "lat": 35.0199585,
    "lng": 135.7288818,
    "fetched_ok": true
  },
  {
    "id": "oakhouse_834",
    "oakhouse_id": "834",
    "kind": "house",
    "name": "FASTROOM 코엔지",
    "url": "https://www.oakhouse.jp/kr/house/834",
    "address": "도쿄도 나카노구 야마토초",
    "lat": 35.7111626,
    "lng": 139.6525269,
    "fetched_ok": true
  },
  {
    "id": "oakhouse_1167",
    "oakhouse_id": "1167",
    "kind": "apartment",
    "name": "페리스 히가시코엔지",
    "url": "https://www.oakhouse.jp/kr/apartment/1167",
    "address": "도쿄도 스기나미구 코엔지미나미",
    "lat": 35.6987305,
    "lng": 139.6615448,
    "fetched_ok": true
  },
  {
    "id": "oakhouse_16667",
    "oakhouse_id": "16667",
    "kind": "apartment",
    "name": "FIORE",
    "url": "https://www.oakhouse.jp/kr/apartment/16667",
    "address": "니시가와라 1초메",
    "lat": 34.8288307,
    "lng": 135.5753326,
    "fetched_ok": true
  },
  {
    "id": "oakhouse_1168",
    "oakhouse_id": "1168",
    "kind": "house",
    "name": "플랫노키관 (교토)",
    "url": "https://www.oakhouse.jp/kr/house/1168",
    "address": "교토부 교토시 가미교구 소고쿠지몬마에초",
    "lat": 35.0320396,
    "lng": 135.7599182,
    "fetched_ok": true
  },
  {
    "id": "oakhouse_1155",
    "oakhouse_id": "1155",
    "kind": "apartment",
    "name": "플랫 네리마",
    "url": "https://www.oakhouse.jp/kr/apartment/1155",
    "address": "도쿄도 연리구 풍요로운 북쪽",
    "lat": 35.7344284,
    "lng": 139.6570892,
    "fetched_ok": true
  },
  {
    "id": "oakhouse_678",
    "oakhouse_id": "678",
    "kind": "house",
    "name": "플로라 에비스",
    "url": "https://www.oakhouse.jp/kr/house/678",
    "address": "도쿄도 시부야구 히가시",
    "lat": 35.6511536,
    "lng": 139.7088776,
    "fetched_ok": true
  },
  {
    "id": "oakhouse_692",
    "oakhouse_id": "692",
    "kind": "house",
    "name": "플로라 가든 아자부",
    "url": "https://www.oakhouse.jp/kr/house/692",
    "address": "도쿄도 미나토구 미나미아자부",
    "lat": 35.6499481,
    "lng": 139.73349,
    "fetched_ok": true
  },
  {
    "id": "oakhouse_851",
    "oakhouse_id": "851",
    "kind": "house",
    "name": "플로라 하네다공항",
    "url": "https://www.oakhouse.jp/kr/house/851",
    "address": "도쿄도 오타구 니시코지야",
    "lat": 35.5559235,
    "lng": 139.7329712,
    "fetched_ok": true
  },
  {
    "id": "oakhouse_806",
    "oakhouse_id": "806",
    "kind": "house",
    "name": "플로라 니시아라이",
    "url": "https://www.oakhouse.jp/kr/house/806",
    "address": "도쿄도 아다치구 니시아라이 사카에쵸",
    "lat": 35.7770195,
    "lng": 139.7889862,
    "fetched_ok": true
  },
  {
    "id": "oakhouse_624",
    "oakhouse_id": "624",
    "kind": "house",
    "name": "플로라 시로가네다이",
    "url": "https://www.oakhouse.jp/kr/house/624",
    "address": "도쿄도 미나토구 시로가네다이",
    "lat": 35.6374359,
    "lng": 139.7292328,
    "fetched_ok": true
  },
  {
    "id": "oakhouse_979",
    "oakhouse_id": "979",
    "kind": "house",
    "name": "FORO에이후쿠쵸",
    "url": "https://www.oakhouse.jp/kr/house/979",
    "address": "도쿄도 스기나미구 오오미야",
    "lat": 35.681469,
    "lng": 139.6391144,
    "fetched_ok": true
  },
  {
    "id": "oakhouse_1147",
    "oakhouse_id": "1147",
    "kind": "apartment",
    "name": "FOUSYM 신코엔지",
    "url": "https://www.oakhouse.jp/kr/apartment/1147",
    "address": "도쿄도 스기나미구 호리노우치",
    "lat": 35.6941071,
    "lng": 139.6492157,
    "fetched_ok": true
  },
  {
    "id": "oakhouse_1148",
    "oakhouse_id": "1148",
    "kind": "apartment",
    "name": "FOUSYM 나카노",
    "url": "https://www.oakhouse.jp/kr/apartment/1148",
    "address": "도쿄도 나카노구 혼마치",
    "lat": 35.6954727,
    "lng": 139.6716614,
    "fetched_ok": true
  },
  {
    "id": "oakhouse_1141",
    "oakhouse_id": "1141",
    "kind": "apartment",
    "name": "FOUSYM 용가",
    "url": "https://www.oakhouse.jp/kr/apartment/1141",
    "address": "Tokyo-to Setagaya-ku Yoga",
    "lat": 35.6251068,
    "lng": 139.6369781,
    "fetched_ok": true
  },
  {
    "id": "oakhouse_1119",
    "oakhouse_id": "1119",
    "kind": "apartment",
    "name": "FANNE 쿄도",
    "url": "https://www.oakhouse.jp/kr/apartment/1119",
    "address": "토쿄도 세타가야구 미야사카",
    "lat": 35.6522903,
    "lng": 139.6419373,
    "fetched_ok": true
  },
  {
    "id": "oakhouse_15058",
    "oakhouse_id": "15058",
    "kind": "apartment",
    "name": "FURVAL 핫초보리",
    "url": "https://www.oakhouse.jp/kr/apartment/15058",
    "address": "도쿄도 츄오구 신카와 2초메",
    "lat": 35.6745033,
    "lng": 139.7826843,
    "fetched_ok": true
  },
  {
    "id": "oakhouse_15578",
    "oakhouse_id": "15578",
    "kind": "apartment",
    "name": "파레 요요기우에하라",
    "url": "https://www.oakhouse.jp/kr/apartment/15578",
    "address": "도쿄도 시부야구 토미가야 2초메",
    "lat": 35.6633568,
    "lng": 139.6848145,
    "fetched_ok": true
  },
  {
    "id": "oakhouse_18113",
    "oakhouse_id": "18113",
    "kind": "apartment",
    "name": "펠리덴시아 스미요시",
    "url": "https://www.oakhouse.jp/kr/apartment/18113",
    "address": "도쿄도 고토구 센다",
    "lat": 35.6818542,
    "lng": 139.8149414,
    "fetched_ok": true
  },
  {
    "id": "oakhouse_16891",
    "oakhouse_id": "16891",
    "kind": "apartment",
    "name": "펠리덴시아 미타케산",
    "url": "https://www.oakhouse.jp/kr/apartment/16891",
    "address": "도쿄도 오타구 기타링초",
    "lat": 35.5850716,
    "lng": 139.6820526,
    "fetched_ok": true
  },
  {
    "id": "oakhouse_18117",
    "oakhouse_id": "18117",
    "kind": "apartment",
    "name": "파인시티 오지카미야 리버 & 포레스트",
    "url": "https://www.oakhouse.jp/kr/apartment/18117",
    "address": "도쿄도 아다치구 신덴 1초메",
    "lat": 35.774456,
    "lng": 139.7375793,
    "fetched_ok": true
  },
  {
    "id": "oakhouse_16556",
    "oakhouse_id": "16556",
    "kind": "apartment",
    "name": "피오네 히가시오구스",
    "url": "https://www.oakhouse.jp/kr/apartment/16556",
    "address": "도쿄도 아라카와구 히가시오구 6초메",
    "lat": 35.7477913,
    "lng": 139.7739258,
    "fetched_ok": true
  },
  {
    "id": "oakhouse_17150",
    "oakhouse_id": "17150",
    "kind": "apartment",
    "name": "피오네 신코이와",
    "url": "https://www.oakhouse.jp/kr/apartment/17150",
    "address": "도쿄도 가쓰시카구 신코이와 1초메",
    "lat": 35.7145805,
    "lng": 139.8555756,
    "fetched_ok": true
  },
  {
    "id": "oakhouse_17068",
    "oakhouse_id": "17068",
    "kind": "apartment",
    "name": "피오네 신코이와 II",
    "url": "https://www.oakhouse.jp/kr/apartment/17068",
    "address": "도쿄도 가쓰시카구 신코이와 4초메",
    "lat": 35.7197456,
    "lng": 139.8630676,
    "fetched_ok": true
  },
  {
    "id": "oakhouse_16250",
    "oakhouse_id": "16250",
    "kind": "apartment",
    "name": "피오레 킨마치 II",
    "url": "https://www.oakhouse.jp/kr/apartment/16250",
    "address": "도쿄도 가쓰시카구 히가시카네초 3초메",
    "lat": 35.77145,
    "lng": 139.8725891,
    "fetched_ok": true
  },
  {
    "id": "oakhouse_14760",
    "oakhouse_id": "14760",
    "kind": "apartment",
    "name": "플러피 덴엔조후",
    "url": "https://www.oakhouse.jp/kr/apartment/14760",
    "address": "도쿄도 세타가야구 히가시타마가와 2초메",
    "lat": 35.59935,
    "lng": 139.6699371,
    "fetched_ok": true
  },
  {
    "id": "oakhouse_17340",
    "oakhouse_id": "17340",
    "kind": "apartment",
    "name": "플러피 이치야마다이초",
    "url": "https://www.oakhouse.jp/kr/apartment/17340",
    "address": "도쿄도 신주쿠구 이치야다이쵸",
    "lat": 35.693985,
    "lng": 139.7187347,
    "fetched_ok": true
  },
  {
    "id": "oakhouse_15078",
    "oakhouse_id": "15078",
    "kind": "apartment",
    "name": "플러피 니혼바시 하마마치",
    "url": "https://www.oakhouse.jp/kr/apartment/15078",
    "address": "도쿄도 츄오구 니혼바시하마초 1초메",
    "lat": 35.6903,
    "lng": 139.7876434,
    "fetched_ok": true
  },
  {
    "id": "oakhouse_16532",
    "oakhouse_id": "16532",
    "kind": "apartment",
    "name": "플러피 니시와세다",
    "url": "https://www.oakhouse.jp/kr/apartment/16532",
    "address": "도쿄도 신주쿠구 니시와다 1초메",
    "lat": 35.711174,
    "lng": 139.7197876,
    "fetched_ok": true
  },
  {
    "id": "oakhouse_18072",
    "oakhouse_id": "18072",
    "kind": "apartment",
    "name": "포리아라이즈 난바 미나미 파로",
    "url": "https://www.oakhouse.jp/kr/apartment/18072",
    "address": "오사카 부 오사카 시 오쿠니 2초메",
    "lat": 34.6545486,
    "lng": 135.4951782,
    "fetched_ok": true
  },
  {
    "id": "oakhouse_16032",
    "oakhouse_id": "16032",
    "kind": "apartment",
    "name": "포레스트 오일코지 시조",
    "url": "https://www.oakhouse.jp/kr/apartment/16032",
    "address": "교토부 교토시 야마다마치",
    "lat": 35.0052986,
    "lng": 135.753952,
    "fetched_ok": true
  },
  {
    "id": "oakhouse_15552",
    "oakhouse_id": "15552",
    "kind": "apartment",
    "name": "포레스트힐스 코히나타",
    "url": "https://www.oakhouse.jp/kr/apartment/15552",
    "address": "도쿄도 분쿄구 고히무타 4초메",
    "lat": 35.7170029,
    "lng": 139.7375946,
    "fetched_ok": true
  },
  {
    "id": "oakhouse_16379",
    "oakhouse_id": "16379",
    "kind": "apartment",
    "name": "포레스트 니시오지 고조",
    "url": "https://www.oakhouse.jp/kr/apartment/16379",
    "address": "교토부 교토시 니시인미나미타카타카마치",
    "lat": 34.9957123,
    "lng": 135.7324677,
    "fetched_ok": true
  },
  {
    "id": "oakhouse_15898",
    "oakhouse_id": "15898",
    "kind": "apartment",
    "name": "포리얼라이즈 쇼와난도리 I",
    "url": "https://www.oakhouse.jp/kr/apartment/15898",
    "address": "효고현 아마가사키 시 쇼와난도리 5초메",
    "lat": 34.7213669,
    "lng": 135.411972,
    "fetched_ok": true
  },
  {
    "id": "oakhouse_17538",
    "oakhouse_id": "17538",
    "kind": "apartment",
    "name": "포르투나 메지로",
    "url": "https://www.oakhouse.jp/kr/apartment/17538",
    "address": "도쿄도 도시마구 메지로 5초메",
    "lat": 35.7239799,
    "lng": 139.6963654,
    "fetched_ok": true
  },
  {
    "id": "oakhouse_14882",
    "oakhouse_id": "14882",
    "kind": "apartment",
    "name": "후카사와 스페이스9",
    "url": "https://www.oakhouse.jp/kr/apartment/14882",
    "address": "도쿄도 세타가야구 후카자와 4초메",
    "lat": 35.6220856,
    "lng": 139.6584015,
    "fetched_ok": true
  },
  {
    "id": "oakhouse_15054",
    "oakhouse_id": "15054",
    "kind": "apartment",
    "name": "퓨전 아사쿠사",
    "url": "https://www.oakhouse.jp/kr/apartment/15054",
    "address": "도쿄도 다이토구 아사쿠사 4초메",
    "lat": 35.7185249,
    "lng": 139.7962189,
    "fetched_ok": true
  },
  {
    "id": "oakhouse_17069",
    "oakhouse_id": "17069",
    "kind": "apartment",
    "name": "지메종 후쿠사이 우시하마 린트천",
    "url": "https://www.oakhouse.jp/kr/apartment/17069",
    "address": "도쿄도 후쿠오시 우시하마",
    "lat": 35.7343216,
    "lng": 139.3352966,
    "fetched_ok": true
  },
  {
    "id": "oakhouse_17103",
    "oakhouse_id": "17103",
    "kind": "apartment",
    "name": "지메종 고이 츄오이 주오니시 제퍼",
    "url": "https://www.oakhouse.jp/kr/apartment/17103",
    "address": "고이중앙서1초메",
    "lat": 35.5145416,
    "lng": 140.085968,
    "fetched_ok": true
  },
  {
    "id": "oakhouse_16981",
    "oakhouse_id": "16981",
    "kind": "apartment",
    "name": "지메종 기누가사에이초",
    "url": "https://www.oakhouse.jp/kr/apartment/16981",
    "address": "기누가사에이초 1초메",
    "lat": 35.2584419,
    "lng": 139.6639404,
    "fetched_ok": true
  },
  {
    "id": "oakhouse_18076",
    "oakhouse_id": "18076",
    "kind": "apartment",
    "name": "지메종 니시하치오지",
    "url": "https://www.oakhouse.jp/kr/apartment/18076",
    "address": "도쿄도 하치오지시 산다초 3초메",
    "lat": 35.6543274,
    "lng": 139.3086395,
    "fetched_ok": true
  },
  {
    "id": "oakhouse_16368",
    "oakhouse_id": "16368",
    "kind": "apartment",
    "name": "지메종 야쿠엔다이",
    "url": "https://www.oakhouse.jp/kr/apartment/16368",
    "address": "지바현 후나바시시 야쿠엔다이 3초메",
    "lat": 35.7107811,
    "lng": 140.0477905,
    "fetched_ok": true
  },
  {
    "id": "oakhouse_18073",
    "oakhouse_id": "18073",
    "kind": "apartment",
    "name": "G-comfort WEST 신요코하마",
    "url": "https://www.oakhouse.jp/kr/apartment/18073",
    "address": "가나가와현 요코하마시 신요코하마 1초메",
    "lat": 35.5040398,
    "lng": 139.6091919,
    "fetched_ok": true
  },
  {
    "id": "oakhouse_14538",
    "oakhouse_id": "14538",
    "kind": "apartment",
    "name": "지메종 에비나",
    "url": "https://www.oakhouse.jp/kr/apartment/14538",
    "address": "나카노 1초메",
    "lat": 35.4145355,
    "lng": 139.3747864,
    "fetched_ok": true
  },
  {
    "id": "oakhouse_16432",
    "oakhouse_id": "16432",
    "kind": "apartment",
    "name": "지메종 에비나 카도사와바시",
    "url": "https://www.oakhouse.jp/kr/apartment/16432",
    "address": "문자와바시 4초메",
    "lat": 35.4022331,
    "lng": 139.3772736,
    "fetched_ok": true
  },
  {
    "id": "oakhouse_707",
    "oakhouse_id": "707",
    "kind": "apartment",
    "name": "가든 하이츠 히가시코가네이",
    "url": "https://www.oakhouse.jp/kr/apartment/707",
    "address": "도쿄도 코가네이시 히가시쵸",
    "lat": 35.7016182,
    "lng": 139.5316925,
    "fetched_ok": true
  },
  {
    "id": "oakhouse_894",
    "oakhouse_id": "894",
    "kind": "house",
    "name": "그랑 가쿠게이다이가쿠",
    "url": "https://www.oakhouse.jp/kr/house/894",
    "address": "도쿄도 메구로구 미나미",
    "lat": 35.6172066,
    "lng": 139.6888123,
    "fetched_ok": true
  },
  {
    "id": "oakhouse_1177",
    "oakhouse_id": "1177",
    "kind": "house",
    "name": "그랑 이치카와",
    "url": "https://www.oakhouse.jp/kr/house/1177",
    "address": "지바현 이치카와시 이치카와",
    "lat": 35.7323685,
    "lng": 139.9059753,
    "fetched_ok": true
  },
  {
    "id": "oakhouse_1142",
    "oakhouse_id": "1142",
    "kind": "house",
    "name": "그랑 고베",
    "url": "https://www.oakhouse.jp/kr/house/1142",
    "address": "효고현 고베시 히가시나다구 우오자키키타마치",
    "lat": 34.7159424,
    "lng": 135.2690582,
    "fetched_ok": true
  },
  {
    "id": "oakhouse_1121",
    "oakhouse_id": "1121",
    "kind": "house",
    "name": "그랑 교토역앞",
    "url": "https://www.oakhouse.jp/kr/house/1121",
    "address": "교토부 교토시 시모교구 니시타마미즈초",
    "lat": 34.9904099,
    "lng": 135.7614899,
    "fetched_ok": true
  },
  {
    "id": "oakhouse_1166",
    "oakhouse_id": "1166",
    "kind": "house",
    "name": "그랑 미나미 교토쿠",
    "url": "https://www.oakhouse.jp/kr/house/1166",
    "address": "지바현 이치카와시 후쿠에이",
    "lat": 35.6758652,
    "lng": 139.9067535,
    "fetched_ok": true
  },
  {
    "id": "oakhouse_920",
    "oakhouse_id": "920",
    "kind": "house",
    "name": "그랑 미타카다이",
    "url": "https://www.oakhouse.jp/kr/house/920",
    "address": "도쿄도 미타카시 이노가시라",
    "lat": 35.6894264,
    "lng": 139.5852051,
    "fetched_ok": true
  },
  {
    "id": "oakhouse_862",
    "oakhouse_id": "862",
    "kind": "house",
    "name": "그랑 나카노",
    "url": "https://www.oakhouse.jp/kr/house/862",
    "address": "도쿄도 스기나미구 와다",
    "lat": 35.6921768,
    "lng": 139.6643372,
    "fetched_ok": true
  },
  {
    "id": "oakhouse_839",
    "oakhouse_id": "839",
    "kind": "house",
    "name": "그랑 니시아자부",
    "url": "https://www.oakhouse.jp/kr/house/839",
    "address": "도쿄도 미나토구 니시아자부",
    "lat": 35.6578522,
    "lng": 139.7189178,
    "fetched_ok": true
  },
  {
    "id": "oakhouse_1030",
    "oakhouse_id": "1030",
    "kind": "house",
    "name": "그랑 노보리토",
    "url": "https://www.oakhouse.jp/kr/house/1030",
    "address": "카나가와켄 카와사키시 타마구 슈쿠가와라",
    "lat": 35.6120415,
    "lng": 139.5834351,
    "fetched_ok": true
  },
  {
    "id": "oakhouse_1186",
    "oakhouse_id": "1186",
    "kind": "house",
    "name": "GRAN 오사카다카쓰키",
    "url": "https://www.oakhouse.jp/kr/house/1186",
    "address": "오사카후 다카쓰키시 코소베초",
    "lat": 34.8585777,
    "lng": 135.6240387,
    "fetched_ok": true
  },
  {
    "id": "oakhouse_1029",
    "oakhouse_id": "1029",
    "kind": "house",
    "name": "그랑 타마가와",
    "url": "https://www.oakhouse.jp/kr/house/1029",
    "address": "도쿄도 오타구 시모마루코",
    "lat": 35.5662766,
    "lng": 139.6875458,
    "fetched_ok": true
  },
  {
    "id": "oakhouse_976",
    "oakhouse_id": "976",
    "kind": "house",
    "name": "그랑 토다",
    "url": "https://www.oakhouse.jp/kr/house/976",
    "address": "사이타마켄 토다시 사사메",
    "lat": 35.8180046,
    "lng": 139.6556091,
    "fetched_ok": true
  },
  {
    "id": "oakhouse_1008",
    "oakhouse_id": "1008",
    "kind": "house",
    "name": "그랑 요미우리랜드마에",
    "url": "https://www.oakhouse.jp/kr/house/1008",
    "address": "카나가와켄 카와사키시 아소구 타마미",
    "lat": 35.6206894,
    "lng": 139.5203705,
    "fetched_ok": true
  },
  {
    "id": "oakhouse_1003",
    "oakhouse_id": "1003",
    "kind": "apartment",
    "name": "그랑 메종 가부키쵸",
    "url": "https://www.oakhouse.jp/kr/apartment/1003",
    "address": "도쿄도 신주쿠구 가부키쵸",
    "lat": 35.6956635,
    "lng": 139.7067566,
    "fetched_ok": true
  },
  {
    "id": "oakhouse_16973",
    "oakhouse_id": "16973",
    "kind": "apartment",
    "name": "GRANSITE NAKAMEGURO",
    "url": "https://www.oakhouse.jp/kr/apartment/16973",
    "address": "도쿄도 메구로구 히가시야마 2초메",
    "lat": 35.6485596,
    "lng": 139.6919708,
    "fetched_ok": true
  },
  {
    "id": "oakhouse_17219",
    "oakhouse_id": "17219",
    "kind": "apartment",
    "name": "GROWS 요코하마 한토바시",
    "url": "https://www.oakhouse.jp/kr/apartment/17219",
    "address": "가나가와현 요코하마시 마가네초 2초메",
    "lat": 35.4380493,
    "lng": 139.6297607,
    "fetched_ok": true
  },
  {
    "id": "oakhouse_11116",
    "oakhouse_id": "11116",
    "kind": "apartment",
    "name": "갈라시티 사사즈카",
    "url": "https://www.oakhouse.jp/kr/apartment/11116",
    "address": "도쿄도 시부야구 사사츠카네시네초메",
    "lat": 35.6741943,
    "lng": 139.6649017,
    "fetched_ok": true
  },
  {
    "id": "oakhouse_12717",
    "oakhouse_id": "12717",
    "kind": "apartment",
    "name": "갈리시아 에고다",
    "url": "https://www.oakhouse.jp/kr/apartment/12717",
    "address": "도쿄도 네리마구 토요타마카미카미초메",
    "lat": 35.7362938,
    "lng": 139.6707306,
    "fetched_ok": true
  },
  {
    "id": "oakhouse_14691",
    "oakhouse_id": "14691",
    "kind": "apartment",
    "name": "갈리시아 연못 위",
    "url": "https://www.oakhouse.jp/kr/apartment/14691",
    "address": "도쿄도 오타구 이케가미 5초메",
    "lat": 35.5738754,
    "lng": 139.7088165,
    "fetched_ok": true
  },
  {
    "id": "oakhouse_14558",
    "oakhouse_id": "14558",
    "kind": "apartment",
    "name": "갈리시아 나카노 야요이초",
    "url": "https://www.oakhouse.jp/kr/apartment/14558",
    "address": "도쿄도 나카노구 야요이초 5초메",
    "lat": 35.6886787,
    "lng": 139.668457,
    "fetched_ok": true
  },
  {
    "id": "oakhouse_14053",
    "oakhouse_id": "14053",
    "kind": "apartment",
    "name": "젬스톤 메구로 미나미",
    "url": "https://www.oakhouse.jp/kr/apartment/14053",
    "address": "도쿄도 메구로구 미나미 3초메",
    "lat": 35.6154594,
    "lng": 139.6834106,
    "fetched_ok": true
  },
  {
    "id": "oakhouse_16440",
    "oakhouse_id": "16440",
    "kind": "apartment",
    "name": "쥬네즈 오사카 조난",
    "url": "https://www.oakhouse.jp/kr/apartment/16440",
    "address": "오사카 부 오사카 시 류조지마치",
    "lat": 34.6769714,
    "lng": 135.5204315,
    "fetched_ok": true
  },
  {
    "id": "oakhouse_15558",
    "oakhouse_id": "15558",
    "kind": "apartment",
    "name": "제노비아 아카바네",
    "url": "https://www.oakhouse.jp/kr/apartment/15558",
    "address": "도쿄도 기타구 아카바네 3초메",
    "lat": 35.7870941,
    "lng": 139.7175598,
    "fetched_ok": true
  },
  {
    "id": "oakhouse_14523",
    "oakhouse_id": "14523",
    "kind": "apartment",
    "name": "제노비아 아오토 스카이 가든",
    "url": "https://www.oakhouse.jp/kr/apartment/14523",
    "address": "도쿄도 가쓰시카구 아오토 6초메",
    "lat": 35.7491341,
    "lng": 139.8572235,
    "fetched_ok": true
  },
  {
    "id": "oakhouse_17561",
    "oakhouse_id": "17561",
    "kind": "apartment",
    "name": "제노비아 한토바시Ⅱ 스카이 가든",
    "url": "https://www.oakhouse.jp/kr/apartment/17561",
    "address": "가나가와현 요코하마시 만세초 2초메",
    "lat": 35.4357414,
    "lng": 139.6303711,
    "fetched_ok": true
  },
  {
    "id": "oakhouse_17251",
    "oakhouse_id": "17251",
    "kind": "apartment",
    "name": "제노비아 니코신치",
    "url": "https://www.oakhouse.jp/kr/apartment/17251",
    "address": "가나가와현 가와사키시 세타",
    "lat": 35.6060257,
    "lng": 139.6251831,
    "fetched_ok": true
  },
  {
    "id": "oakhouse_17552",
    "oakhouse_id": "17552",
    "kind": "apartment",
    "name": "제노비아 하타가야",
    "url": "https://www.oakhouse.jp/kr/apartment/17552",
    "address": "도쿄도 시부야구 하타가야 1초메",
    "lat": 35.6757584,
    "lng": 139.672699,
    "fetched_ok": true
  },
  {
    "id": "oakhouse_17102",
    "oakhouse_id": "17102",
    "kind": "apartment",
    "name": "제노비아 히가시무카이도Ⅲ 스카이가든",
    "url": "https://www.oakhouse.jp/kr/apartment/17102",
    "address": "도쿄도 스미다구 히가시무카이시마 5초메",
    "lat": 35.7281532,
    "lng": 139.8234406,
    "fetched_ok": true
  },
  {
    "id": "oakhouse_17220",
    "oakhouse_id": "17220",
    "kind": "apartment",
    "name": "제노비아 히라쓰카 Ⅲ",
    "url": "https://www.oakhouse.jp/kr/apartment/17220",
    "address": null,
    "lat": 35.3288231,
    "lng": 139.344574,
    "fetched_ok": false
  },
  {
    "id": "oakhouse_17291",
    "oakhouse_id": "17291",
    "kind": "apartment",
    "name": "제노비아 히라쓰카 IV",
    "url": "https://www.oakhouse.jp/kr/apartment/17291",
    "address": "아카시쵸",
    "lat": 35.3314819,
    "lng": 139.3449707,
    "fetched_ok": true
  },
  {
    "id": "oakhouse_16246",
    "oakhouse_id": "16246",
    "kind": "apartment",
    "name": "제노비아 가와사키 Ⅶ",
    "url": "https://www.oakhouse.jp/kr/apartment/16246",
    "address": "가나가와현 가와사키시 미나미마치",
    "lat": 35.5264664,
    "lng": 139.7003784,
    "fetched_ok": true
  },
  {
    "id": "oakhouse_17560",
    "oakhouse_id": "17560",
    "kind": "apartment",
    "name": "제노비아 키타 이케부쿠로 스카이 가든",
    "url": "https://www.oakhouse.jp/kr/apartment/17560",
    "address": "도쿄도 기타구 타키노가와 7초메",
    "lat": 35.7437057,
    "lng": 139.7230225,
    "fetched_ok": true
  },
  {
    "id": "oakhouse_14602",
    "oakhouse_id": "14602",
    "kind": "apartment",
    "name": "제노비아 교세이리츠이시 Ⅲ 스카이 가든",
    "url": "https://www.oakhouse.jp/kr/apartment/14602",
    "address": "도쿄도 가쓰시카구 다테이시 3초메",
    "lat": 35.741684,
    "lng": 139.8452454,
    "fetched_ok": true
  },
  {
    "id": "oakhouse_17539",
    "oakhouse_id": "17539",
    "kind": "apartment",
    "name": "제노비아 미나미센주 Ⅴ 스카이 가든",
    "url": "https://www.oakhouse.jp/kr/apartment/17539",
    "address": "도쿄도 다이토구 키요카와 2초메",
    "lat": 35.7283974,
    "lng": 139.8020935,
    "fetched_ok": true
  },
  {
    "id": "oakhouse_14566",
    "oakhouse_id": "14566",
    "kind": "apartment",
    "name": "제노비아 미나미센주 Ⅵ 스카이 가든",
    "url": "https://www.oakhouse.jp/kr/apartment/14566",
    "address": "도쿄도 다이토구 니혼츠미 1초메",
    "lat": 35.7265968,
    "lng": 139.7992859,
    "fetched_ok": true
  },
  {
    "id": "oakhouse_14584",
    "oakhouse_id": "14584",
    "kind": "apartment",
    "name": "제노비아 나카노시마",
    "url": "https://www.oakhouse.jp/kr/apartment/14584",
    "address": "가나가와현 가와사키시 나카노시마 5초메",
    "lat": 35.631031,
    "lng": 139.5571594,
    "fetched_ok": true
  },
  {
    "id": "oakhouse_14708",
    "oakhouse_id": "14708",
    "kind": "apartment",
    "name": "제노비아 오하나챠야Ⅱ 스카이 가든",
    "url": "https://www.oakhouse.jp/kr/apartment/14708",
    "address": "도쿄도 가쓰시카구 다카라마치 2초메",
    "lat": 35.7465019,
    "lng": 139.8333588,
    "fetched_ok": true
  },
  {
    "id": "oakhouse_14647",
    "oakhouse_id": "14647",
    "kind": "apartment",
    "name": "제노비아 사쿠라조스이 스카이 가든",
    "url": "https://www.oakhouse.jp/kr/apartment/14647",
    "address": "도쿄도 스기나미구 시모타카이도 1초메",
    "lat": 35.6674461,
    "lng": 139.6361084,
    "fetched_ok": true
  },
  {
    "id": "oakhouse_17536",
    "oakhouse_id": "17536",
    "kind": "apartment",
    "name": "제노비아 세타가야砧Ⅱ(제노비아世田谷砧Ⅱ)",
    "url": "https://www.oakhouse.jp/kr/apartment/17536",
    "address": "도쿄도 세타가야구 키누타 3초메",
    "lat": 35.6370316,
    "lng": 139.6107025,
    "fetched_ok": true
  },
  {
    "id": "oakhouse_14694",
    "oakhouse_id": "14694",
    "kind": "apartment",
    "name": "제노비아 시부야 사사츠카 스카이 가든",
    "url": "https://www.oakhouse.jp/kr/apartment/14694",
    "address": "도쿄도 시부야구 사사즈카 2초메",
    "lat": 35.6731071,
    "lng": 139.6616821,
    "fetched_ok": true
  },
  {
    "id": "oakhouse_17559",
    "oakhouse_id": "17559",
    "kind": "apartment",
    "name": "제노바 천왕대",
    "url": "https://www.oakhouse.jp/kr/apartment/17559",
    "address": null,
    "lat": 35.8722801,
    "lng": 140.034729,
    "fetched_ok": false
  },
  {
    "id": "oakhouse_15968",
    "oakhouse_id": "15968",
    "kind": "apartment",
    "name": "제노비아 우에노 Ⅱ 스카이 가든",
    "url": "https://www.oakhouse.jp/kr/apartment/15968",
    "address": "도쿄도 다이토구 기타 우에노 1초메",
    "lat": 35.716301,
    "lng": 139.7813416,
    "fetched_ok": true
  },
  {
    "id": "oakhouse_15383",
    "oakhouse_id": "15383",
    "kind": "apartment",
    "name": "제노비아 요코하마 이시카와초",
    "url": "https://www.oakhouse.jp/kr/apartment/15383",
    "address": "가나가와현 요코하마시 마츠카게초 4초메",
    "lat": 35.437973,
    "lng": 139.6383209,
    "fetched_ok": true
  },
  {
    "id": "oakhouse_18114",
    "oakhouse_id": "18114",
    "kind": "apartment",
    "name": "글라사주 요코하마 리비에르",
    "url": "https://www.oakhouse.jp/kr/apartment/18114",
    "address": "가나가와현 요코하마시 히라누마 1초메",
    "lat": 35.459362,
    "lng": 139.6213226,
    "fetched_ok": true
  },
  {
    "id": "oakhouse_16563",
    "oakhouse_id": "16563",
    "kind": "apartment",
    "name": "그레이스 코트 마치야",
    "url": "https://www.oakhouse.jp/kr/apartment/16563",
    "address": "도쿄도 아라카와구 마치야 4초메",
    "lat": 35.7490921,
    "lng": 139.7794189,
    "fetched_ok": true
  },
  {
    "id": "oakhouse_18081",
    "oakhouse_id": "18081",
    "kind": "apartment",
    "name": "그레이스 신요코하마 액시스",
    "url": "https://www.oakhouse.jp/kr/apartment/18081",
    "address": "가나가와현 요코하마시 신요코하마 2초메",
    "lat": 35.5074883,
    "lng": 139.6109009,
    "fetched_ok": true
  },
  {
    "id": "oakhouse_1026",
    "oakhouse_id": "1026",
    "kind": "house",
    "name": "그랑 히요시",
    "url": "https://www.oakhouse.jp/kr/house/1026",
    "address": "카나가와켄 요코하마미나토키타구 히요시",
    "lat": 35.5432358,
    "lng": 139.6526794,
    "fetched_ok": true
  },
  {
    "id": "oakhouse_968",
    "oakhouse_id": "968",
    "kind": "house",
    "name": "그랑 쿠가야마",
    "url": "https://www.oakhouse.jp/kr/house/968",
    "address": "도쿄도 스기나미구 쿠가야마",
    "lat": 35.6913071,
    "lng": 139.5964813,
    "fetched_ok": true
  },
  {
    "id": "oakhouse_1007",
    "oakhouse_id": "1007",
    "kind": "house",
    "name": "그랑 타카라즈카 (오사카)",
    "url": "https://www.oakhouse.jp/kr/house/1007",
    "address": "효고켄 타카라즈카시 히바리가오카",
    "lat": 34.827343,
    "lng": 135.3996735,
    "fetched_ok": true
  },
  {
    "id": "oakhouse_1070",
    "oakhouse_id": "1070",
    "kind": "house",
    "name": "그랑 요코하마 카미오오카",
    "url": "https://www.oakhouse.jp/kr/house/1070",
    "address": "카나가와켄 요코하마시 미나미구 벳쇼",
    "lat": 35.4114456,
    "lng": 139.587265,
    "fetched_ok": true
  },
  {
    "id": "oakhouse_15278",
    "oakhouse_id": "15278",
    "kind": "apartment",
    "name": "그랑에그스東大前",
    "url": "https://www.oakhouse.jp/kr/apartment/15278",
    "address": "도쿄도 분쿄구 혼고 5초메",
    "lat": 35.7117043,
    "lng": 139.7565613,
    "fetched_ok": true
  },
  {
    "id": "oakhouse_13055",
    "oakhouse_id": "13055",
    "kind": "apartment",
    "name": "그랜드 갈라 아자부주반",
    "url": "https://www.oakhouse.jp/kr/apartment/13055",
    "address": "도쿄도 미나토구 아자부주반 3초메",
    "lat": 35.6532021,
    "lng": 139.7354584,
    "fetched_ok": true
  },
  {
    "id": "oakhouse_17272",
    "oakhouse_id": "17272",
    "kind": "apartment",
    "name": "그랑메종 메구로",
    "url": "https://www.oakhouse.jp/kr/apartment/17272",
    "address": "도쿄도 메구로구 메구로 1초메",
    "lat": 35.6362915,
    "lng": 139.7117462,
    "fetched_ok": true
  },
  {
    "id": "oakhouse_14236",
    "oakhouse_id": "14236",
    "kind": "apartment",
    "name": "그랜드 파세오 키요미즈 시라카와 II",
    "url": "https://www.oakhouse.jp/kr/apartment/14236",
    "address": "도쿄도 고토구 이시시마",
    "lat": 35.6815033,
    "lng": 139.8110657,
    "fetched_ok": true
  },
  {
    "id": "oakhouse_14772",
    "oakhouse_id": "14772",
    "kind": "apartment",
    "name": "그랑밸류 시부야 혼마치",
    "url": "https://www.oakhouse.jp/kr/apartment/14772",
    "address": "도쿄도 시부야구 혼마치 4초메",
    "lat": 35.6868172,
    "lng": 139.6786346,
    "fetched_ok": true
  },
  {
    "id": "oakhouse_18098",
    "oakhouse_id": "18098",
    "kind": "apartment",
    "name": "그리핀·무사시코스기",
    "url": "https://www.oakhouse.jp/kr/apartment/18098",
    "address": "가나가와현 가와사키시 신마루코초",
    "lat": 35.5787468,
    "lng": 139.6608582,
    "fetched_ok": true
  },
  {
    "id": "oakhouse_16231",
    "oakhouse_id": "16231",
    "kind": "apartment",
    "name": "그리포네 요코하마・주오",
    "url": "https://www.oakhouse.jp/kr/apartment/16231",
    "address": "가나가와현 요코하마시 주오 1초메",
    "lat": 35.4559708,
    "lng": 139.6155396,
    "fetched_ok": true
  },
  {
    "id": "oakhouse_16436",
    "oakhouse_id": "16436",
    "kind": "apartment",
    "name": "지메종 치바 하마노 플라주",
    "url": "https://www.oakhouse.jp/kr/apartment/16436",
    "address": "무라타마치",
    "lat": 35.5510178,
    "lng": 140.1300049,
    "fetched_ok": true
  },
  {
    "id": "oakhouse_15213",
    "oakhouse_id": "15213",
    "kind": "apartment",
    "name": "지오블루미너스",
    "url": "https://www.oakhouse.jp/kr/apartment/15213",
    "address": "도쿄도 츄오구 긴자 7초메",
    "lat": 35.6686287,
    "lng": 139.7633209,
    "fetched_ok": true
  },
  {
    "id": "oakhouse_925",
    "oakhouse_id": "925",
    "kind": "apartment",
    "name": "헤벨 STAY 다이칸야마",
    "url": "https://www.oakhouse.jp/kr/apartment/925",
    "address": "도쿄도 시부야구 사루가쿠쵸",
    "lat": 35.6524391,
    "lng": 139.7044067,
    "fetched_ok": true
  },
  {
    "id": "oakhouse_1004",
    "oakhouse_id": "1004",
    "kind": "apartment",
    "name": "하이라이프 니시신주쿠",
    "url": "https://www.oakhouse.jp/kr/apartment/1004",
    "address": "도쿄도 신주쿠구 니시신주쿠",
    "lat": 35.6971474,
    "lng": 139.6972656,
    "fetched_ok": true
  },
  {
    "id": "oakhouse_1154",
    "oakhouse_id": "1154",
    "kind": "apartment",
    "name": "홈브라이트",
    "url": "https://www.oakhouse.jp/kr/apartment/1154",
    "address": "도쿄도 나카노구 야마토초",
    "lat": 35.71558,
    "lng": 139.6514893,
    "fetched_ok": true
  },
  {
    "id": "oakhouse_639",
    "oakhouse_id": "639",
    "kind": "house",
    "name": "호리키리 레트로",
    "url": "https://www.oakhouse.jp/kr/house/639",
    "address": "도쿄도 카츠시카구 호리키리",
    "lat": 35.7517586,
    "lng": 139.8304596,
    "fetched_ok": true
  },
  {
    "id": "oakhouse_13710",
    "oakhouse_id": "13710",
    "kind": "apartment",
    "name": "하모니 레지던스 카마타 아트 빌라",
    "url": "https://www.oakhouse.jp/kr/apartment/13710",
    "address": "도쿄도 오타구 카마타혼마치 1초메",
    "lat": 35.5563202,
    "lng": 139.7149658,
    "fetched_ok": true
  },
  {
    "id": "oakhouse_16229",
    "oakhouse_id": "16229",
    "kind": "apartment",
    "name": "하모니 레지던스 신주쿠 EAST",
    "url": "https://www.oakhouse.jp/kr/apartment/16229",
    "address": "도쿄도 신주쿠구 신주쿠 6초메",
    "lat": 35.6964645,
    "lng": 139.710556,
    "fetched_ok": true
  },
  {
    "id": "oakhouse_15853",
    "oakhouse_id": "15853",
    "kind": "apartment",
    "name": "하모니 레지던스 신주쿠 교엔 THE WEST",
    "url": "https://www.oakhouse.jp/kr/apartment/15853",
    "address": "도쿄도 신주쿠구 신주쿠 6초메",
    "lat": 35.6943436,
    "lng": 139.7111053,
    "fetched_ok": true
  },
  {
    "id": "oakhouse_15101",
    "oakhouse_id": "15101",
    "kind": "apartment",
    "name": "하모니 레지던스 타마치",
    "url": "https://www.oakhouse.jp/kr/apartment/15101",
    "address": "도쿄도 미나토구 시바우라 1초메",
    "lat": 35.6472778,
    "lng": 139.7534637,
    "fetched_ok": true
  },
  {
    "id": "oakhouse_16249",
    "oakhouse_id": "16249",
    "kind": "apartment",
    "name": "하모니 레지던스 요코하마 간나이",
    "url": "https://www.oakhouse.jp/kr/apartment/16249",
    "address": "가나가와현 요코하마시 치토세초",
    "lat": 35.437706,
    "lng": 139.6352692,
    "fetched_ok": true
  },
  {
    "id": "oakhouse_18104",
    "oakhouse_id": "18104",
    "kind": "apartment",
    "name": "히가시신주쿠 하우스",
    "url": "https://www.oakhouse.jp/kr/apartment/18104",
    "address": "도쿄도 신주쿠구 신주쿠 7초메",
    "lat": 35.6985435,
    "lng": 139.7116699,
    "fetched_ok": true
  },
  {
    "id": "oakhouse_18103",
    "oakhouse_id": "18103",
    "kind": "apartment",
    "name": "히가시신주쿠 TERRACE W동",
    "url": "https://www.oakhouse.jp/kr/apartment/18103",
    "address": "도쿄도 신주쿠구 신주쿠 7초메",
    "lat": 35.6995888,
    "lng": 139.7105103,
    "fetched_ok": true
  },
  {
    "id": "oakhouse_15847",
    "oakhouse_id": "15847",
    "kind": "apartment",
    "name": "하우스 세존 신이타바시",
    "url": "https://www.oakhouse.jp/kr/apartment/15847",
    "address": "도쿄도 이타바시구 이타바시 4초메",
    "lat": 35.7494507,
    "lng": 139.7163391,
    "fetched_ok": true
  },
  {
    "id": "oakhouse_17441",
    "oakhouse_id": "17441",
    "kind": "apartment",
    "name": "휴넷 고베 모토마치",
    "url": "https://www.oakhouse.jp/kr/apartment/17441",
    "address": "효고현 고베시 모토마치도리 5초메",
    "lat": 34.6858597,
    "lng": 135.1819,
    "fetched_ok": true
  },
  {
    "id": "oakhouse_17033",
    "oakhouse_id": "17033",
    "kind": "apartment",
    "name": "HⅡ 니시아카시",
    "url": "https://www.oakhouse.jp/kr/apartment/17033",
    "address": "니시아카시미나미초 2초메",
    "lat": 34.6659241,
    "lng": 134.9585571,
    "fetched_ok": true
  },
  {
    "id": "oakhouse_14529",
    "oakhouse_id": "14529",
    "kind": "apartment",
    "name": "아이엔지 사사즈카",
    "url": "https://www.oakhouse.jp/kr/apartment/14529",
    "address": "도쿄도 시부야구 사사즈카 2초메",
    "lat": 35.6743279,
    "lng": 139.6653137,
    "fetched_ok": true
  },
  {
    "id": "oakhouse_1149",
    "oakhouse_id": "1149",
    "kind": "house",
    "name": "이치카와 부르그",
    "url": "https://www.oakhouse.jp/kr/house/1149",
    "address": "치바현 이치카와시 스와다",
    "lat": 35.737606,
    "lng": 139.91362,
    "fetched_ok": true
  },
  {
    "id": "oakhouse_17289",
    "oakhouse_id": "17289",
    "kind": "apartment",
    "name": "일피오레 도립대학",
    "url": "https://www.oakhouse.jp/kr/apartment/17289",
    "address": "도쿄도 메구로구 카키노기카자키자카 1초메",
    "lat": 35.6205788,
    "lng": 139.6801147,
    "fetched_ok": true
  },
  {
    "id": "oakhouse_16669",
    "oakhouse_id": "16669",
    "kind": "apartment",
    "name": "인더그레이스 신오사카 솔레어드",
    "url": "https://www.oakhouse.jp/kr/apartment/16669",
    "address": "오사카 부 오사카 시 니시아다와지 3초메",
    "lat": 34.7405739,
    "lng": 135.5072174,
    "fetched_ok": true
  },
  {
    "id": "oakhouse_1125",
    "oakhouse_id": "1125",
    "kind": "house",
    "name": "Incubar Osaka",
    "url": "https://www.oakhouse.jp/kr/house/1125",
    "address": null,
    "lat": null,
    "lng": null,
    "fetched_ok": false,
    "error": "404 Client Error: Not Found for url: https://www.oakhouse.jp/kr/house/1125"
  },
  {
    "id": "oakhouse_1124",
    "oakhouse_id": "1124",
    "kind": "house",
    "name": "IncubarGotanda",
    "url": "https://www.oakhouse.jp/kr/house/1124",
    "address": null,
    "lat": null,
    "lng": null,
    "fetched_ok": false,
    "error": "404 Client Error: Not Found for url: https://www.oakhouse.jp/kr/house/1124"
  },
  {
    "id": "oakhouse_17341",
    "oakhouse_id": "17341",
    "kind": "apartment",
    "name": "이리야 사쿠라사쿠라 레지던스",
    "url": "https://www.oakhouse.jp/kr/apartment/17341",
    "address": "도쿄도 다이토구 이리야 2초메",
    "lat": 35.7197495,
    "lng": 139.7890472,
    "fetched_ok": true
  },
  {
    "id": "oakhouse_16854",
    "oakhouse_id": "16854",
    "kind": "apartment",
    "name": "이로는 우메코지",
    "url": "https://www.oakhouse.jp/kr/apartment/16854",
    "address": "교토부 교토시 오기야초",
    "lat": 34.9900665,
    "lng": 135.7489929,
    "fetched_ok": true
  },
  {
    "id": "oakhouse_17287",
    "oakhouse_id": "17287",
    "kind": "apartment",
    "name": "아일 프리미엄 요코하마 노르드",
    "url": "https://www.oakhouse.jp/kr/apartment/17287",
    "address": "가나가와현 요코하마시 오구치도리",
    "lat": 35.493618,
    "lng": 139.6457977,
    "fetched_ok": true
  },
  {
    "id": "oakhouse_16987",
    "oakhouse_id": "16987",
    "kind": "apartment",
    "name": "제이엠케이 덴엔조후",
    "url": "https://www.oakhouse.jp/kr/apartment/16987",
    "address": "도쿄도 세타가야구 히가시타마가와 2초메",
    "lat": 35.5993614,
    "lng": 139.6699371,
    "fetched_ok": true
  },
  {
    "id": "oakhouse_1165",
    "oakhouse_id": "1165",
    "kind": "apartment",
    "name": "카츠 도키 하이던스",
    "url": "https://www.oakhouse.jp/kr/apartment/1165",
    "address": "토쿄 토 츄오 쿠 카치도키",
    "lat": 35.659317,
    "lng": 139.7785797,
    "fetched_ok": true
  },
  {
    "id": "oakhouse_759",
    "oakhouse_id": "759",
    "kind": "house",
    "name": "카지가야 테라스",
    "url": "https://www.oakhouse.jp/kr/house/759",
    "address": "카나가와켄 카와사키시 타카츠구 무코가오카",
    "lat": 35.5940628,
    "lng": 139.5923004,
    "fetched_ok": true
  },
  {
    "id": "oakhouse_494",
    "oakhouse_id": "494",
    "kind": "apartment",
    "name": "카츠라 하이츠",
    "url": "https://www.oakhouse.jp/kr/apartment/494",
    "address": "도쿄도 네리마구 헤이와다이",
    "lat": 35.7556992,
    "lng": 139.6582336,
    "fetched_ok": true
  },
  {
    "id": "oakhouse_415",
    "oakhouse_id": "415",
    "kind": "apartment",
    "name": "케이오 후추 아파트먼트",
    "url": "https://www.oakhouse.jp/kr/apartment/415",
    "address": "도쿄도 후추시 시라이토다이",
    "lat": 35.6640053,
    "lng": 139.5084381,
    "fetched_ok": true
  },
  {
    "id": "oakhouse_1134",
    "oakhouse_id": "1134",
    "kind": "apartment",
    "name": "키타사 높이",
    "url": "https://www.oakhouse.jp/kr/apartment/1134",
    "address": "교토부 교토시 나카교구 미부노바바쵸",
    "lat": 35.0078087,
    "lng": 135.7460938,
    "fetched_ok": true
  },
  {
    "id": "oakhouse_14699",
    "oakhouse_id": "14699",
    "kind": "apartment",
    "name": "KNOTS 오야마",
    "url": "https://www.oakhouse.jp/kr/apartment/14699",
    "address": "도쿄도 이타바시구 오야마쵸",
    "lat": 35.7501831,
    "lng": 139.6956329,
    "fetched_ok": true
  },
  {
    "id": "oakhouse_14496",
    "oakhouse_id": "14496",
    "kind": "apartment",
    "name": "KNOTS 신마루코",
    "url": "https://www.oakhouse.jp/kr/apartment/14496",
    "address": "가나가와현 가와사키시 마루코도리 1초메",
    "lat": 35.5841446,
    "lng": 139.6646729,
    "fetched_ok": true
  },
  {
    "id": "oakhouse_14615",
    "oakhouse_id": "14615",
    "kind": "apartment",
    "name": "KNOTS Tobu Nerima Sta.",
    "url": "https://www.oakhouse.jp/kr/apartment/14615",
    "address": "도쿄도 이타바시구 토쿠마루 2초메",
    "lat": 35.7694206,
    "lng": 139.6628418,
    "fetched_ok": true
  },
  {
    "id": "oakhouse_14569",
    "oakhouse_id": "14569",
    "kind": "apartment",
    "name": "KOUSOU 아키하바라",
    "url": "https://www.oakhouse.jp/kr/apartment/14569",
    "address": "도쿄도 지요다구 소토칸다 3초메",
    "lat": 35.7022858,
    "lng": 139.769989,
    "fetched_ok": true
  },
  {
    "id": "oakhouse_1131",
    "oakhouse_id": "1131",
    "kind": "apartment",
    "name": "쿠스노키관",
    "url": "https://www.oakhouse.jp/kr/apartment/1131",
    "address": "Tokyo-to Bunkyo-ku Nishikata",
    "lat": 35.7149506,
    "lng": 139.7572632,
    "fetched_ok": true
  },
  {
    "id": "oakhouse_16548",
    "oakhouse_id": "16548",
    "kind": "apartment",
    "name": "켄즈 그랑노리엠",
    "url": "https://www.oakhouse.jp/kr/apartment/16548",
    "address": "도쿄도 기타구 가미주조 2초메",
    "lat": 35.758297,
    "lng": 139.7209473,
    "fetched_ok": true
  },
  {
    "id": "oakhouse_16980",
    "oakhouse_id": "16980",
    "kind": "apartment",
    "name": "킨드니스 아츠키 코우키마치",
    "url": "https://www.oakhouse.jp/kr/apartment/16980",
    "address": null,
    "lat": 35.4399796,
    "lng": 139.3694153,
    "fetched_ok": false
  },
  {
    "id": "oakhouse_16497",
    "oakhouse_id": "16497",
    "kind": "apartment",
    "name": "레쥬르 애쉬 OSAKA 신후카에",
    "url": "https://www.oakhouse.jp/kr/apartment/16497",
    "address": "오사카 부 오사카 시 후카에난 3초메",
    "lat": 34.6687355,
    "lng": 135.5597992,
    "fetched_ok": true
  },
  {
    "id": "oakhouse_1172",
    "oakhouse_id": "1172",
    "kind": "house",
    "name": "랜드마크 토다",
    "url": "https://www.oakhouse.jp/kr/house/1172",
    "address": "사이타마현 토다시 신조",
    "lat": 35.8187141,
    "lng": 139.6593018,
    "fetched_ok": true
  },